provider_num,npi,name,address,city,state,zip,fips_county,lat,lon,phone,provider_type_code,category,emergency,upin,pin,region_code,bed_count,clia_lab_number,hasSpecialties,GENERAL SURGERY,SURGICAL ONCOLOGY,THORACIC SURGERY,CARDIAC SURGERY,OPHTHALMOLOGY,PLASTIC AND RECONSTRUCTIVE SURGERY,VASCULAR SURGERY,ORTHOPEDIC SURGERY,HAND SURGERY,ORAL SURGERY,GASTROENTEROLOGY,DERMATOLOGY,PAIN MANAGEMENT,COLORECTAL SURGERY (PROCTOLOGY),UROLOGY
,1548213077,PACIFIC CATARACT AND LASER INSTITUTE OF ALASKA INC PC,1600 A ST,ANCHORAGE,AK,995015147,,61.206013,-149.88339,9072722423,Dec-49,,,K150069,K150069,,,,,,,,,,,,,,,,,,,
,1699875450,GENEVA WOODS SURGICAL CENTER INC,3730 RHONE CIR,ANCHORAGE,AK,995085054,,61.18726841,-149.8616705,9075624764,Dec-49,,,,,,,,,,,,,,,,,,,,,,,
,1770605214,ANCHORAGE ENDOSCOPY CENTER LLC,2841 DEBARR RD STE 51,ANCHORAGE,AK,995082968,,61.2097966,-149.828776,9072223636,Dec-49,,,,490004596,,,,,,,,,,,,,,,,,,,
,1508835299,ALASKA DIGESTIVE CENTER LLC,4048 LAUREL ST,ANCHORAGE,AK,995085389,,61.18400138,-149.8346404,9075631750,Dec-49,,,,153005,,,,,,,,,,,,,,,,,,,
,1205892197,ALASKA SURGERY CENTER LIMITED PARTNERSHIP,1230 NORTHWAY DR,ANCHORAGE,AK,995082031,,61.2127118,-149.8121135,9075506100,Dec-49,,,,0000DBBBF,,,,,,,,,,,,,,,,,,,
,1316942048,ALASKA SPINE INSTITUTE SURGERY CENTER LLC,3801 LAKE OTIS PKWY STE 100,ANCHORAGE,AK,995085234,,61.185965,-149.838051,9075631555,Dec-49,,,,K153125,,,,,,,,,,,,,,,,,,,
,1093710717,ALASKA SPINE CENTER LLC,4100 LAKE OTIS PKWY,ANCHORAGE,AK,995085230,,61.18351895,-149.8383763,9076445500,Dec-49,,,,K151869,,,,,,,,,,,,,,,,,,,
,1033395603,AWH HOLDINGS LLC,4115 LAKE OTIS PKWY,ANCHORAGE,AK,995085368,,61.18329359,-149.8380348,9075637228,Dec-49,,,,,,,,,,,,,,,,,,,,,,,
,1821327560,JUNEAU SPINE AND PAIN CENTER LLC,3200 HOSPITAL DR,JUNEAU,AK,998017808,,58.330528,-134.47181,9075235962,Dec-49,,,,,,,,,,,,,,,,,,,,,,,
,1710207998,PROVIDENCE SURGERY CENTERS LLC,3831 PIPER ST. SUITE S-110,ANCHORAGE,AK,995084672,,61.18594809,-149.8231092,9073397800,Dec-49,,,,,,,,,,,,,,,,,,,,,,,
,1255652285,SURGERY CENTER OF FAIRBANKS LLC,2310 PEGER ROAD,FAIRBANKS,AK,997095305,,64.8265212,-147.7786734,9074792663,Dec-49,,,,,,,,,,,,,,,,,,,,,,,
,1912202896,"ALASKA EYE SURGERY AND LASER CENTER, INC.",235 E 8TH AVE STE 3A,ANCHORAGE,AK,995013656,,61.214693,-149.880843,9075691551,Dec-49,,,,,,,,TRUE,,,,,5,,,,,,,,,,
,1336448968,"SOUTH ANCHORAGE SURGERY CENTER, LLC",1917 ABBOTT RD,ANCHORAGE,AK,995073449,,61.13892282,-149.8460193,9077703224,Dec-49,,,,,,,,,,,,,,,,,,,,,,,
,1649534843,"SURGERY CENTER OF WASILLA, LLC",3190 E MERIDIAN PARK LOOP STE 111,WASILLA,AK,996547422,,61.5824216,-149.442563,9076313578,Dec-49,,,,,,,,,,,,,,,,,,,,,,,
,1477891364,ALASKA HEART INSTITUTE,3220 PROVIDENCE DR,ANCHORAGE,AK,995084679,,61.18976218,-149.8186362,9075613211,Dec-49,,,,,,,,,,,,,,,,,,,,,,,
,1144612714,ANCHORAGE SURGICENTER LLC,4001 LAUREL ST,ANCHORAGE,AK,995085368,,61.184398,-149.834305,9075631800,Dec-49,,,,,,,,,,,,,,,,,,,,,,,
,1073009304,SUSITNA SURGERY CENTER LLC,2490 S WOODWORTH LOOP STE 100,PALMER,AK,996457410,,61.5995703,-149.11109,9078616540,Dec-49,,,,,,,,,,,,,,,,,,,,,,,
,1184195877,"ALPINE SURGICENTER, LLC",3801 LAKE OTIS PKWY,ANCHORAGE,AK,995085234,,61.185965,-149.838051,9075631555,Dec-49,,,,,,,,,,,,,,,,,,,,,,,
,1679998025,SURGERY CENTER OF KENAI,100 TRADING BAY DR,KENAI,AK,996117786,,60.559343,-151.246653,8315887296,Dec-49,,,,,,,,,,,,,,,,,,,,,,,
,1740288679,GULF COAST SURGICAL PARTNERS LLC,3610 SPRINGHILL MEMORIAL DR N,MOBILE,AL,366081162,,30.6867339,-88.0848929,2514103800,Dec-49,,,,51554502,,,,,,,,,,,,,,,,,,,
,1679544050,TUSCALOOSA SURGICAL CENTER LP,1400 MCFARLAND BLVD NORTH,TUSCALOOSA,AL,354062209,,33.2303953,-87.5359679,2053455500,Dec-49,,,,55045,,,,,,,,,,,,,,,,,,,
,1689735250,"VISION CORRECTION CENTER, LLC",1406 MCFARLAND BLVD N,TUSCALOOSA,AL,354062209,,33.23264623,-87.53759264,2052480095,Dec-49,,,Y03750,51554568,,,,,,,,,,,,,,,,,,,
,1962513788,SURGERY CENTER OF DECATUR LP,1122 14TH AVENUE SE,DECATUR,AL,356013361,,34.5907006,-86.96996851,2565602890,Dec-49,,,,,,,,,,,,,,,,,,,,,,,
,1760447866,"MOBILE - SC, LTD",6144 AIRPORT BLVD STE A,MOBILE,AL,366083143,,30.6782467,-88.18417897,2514383614,Dec-49,,,,55034,,,,,,,,,,,,,,,,,,,
,1356369755,"MADISON SURGERY CENTER, LLC",460 LANIER RD,MADISON,AL,357582631,,34.688759,-86.738201,2563199000,Dec-49,,,,,,,,,,,,,,,,,,,,,,,
,1790756237,BIRMINGHAM SURGERY CENTER,2621 19TH ST S,BIRMINGHAM,AL,352091913,,33.49682,-86.795601,2052718200,Dec-49,,,,51555331,,,,,,,,,,,,,,,,,,,
01C0001029,1215926993,NORTH RIVER SURGICAL CENTER LLC,301 RICE MINE ROAD NORTHEAST,TUSCALOOSA,AL,354062403,125,33.228816,-87.530529,2057500022,Dec-49,15-01,TRUE,,51555332,4,,,,,,,,,,,,,,,,,,
,1346349164,SOUTHERN ALABAMA SURGERY CENTER,2800 ROSS CLARK CIR,DOTHAN,AL,363019900,,31.213236,-85.42899,3347933411,Dec-49,,,57289,,,,,,,,,,,,,,,,,,,,
,1235178005,HUNTSVILLE ENDOSCOPY CENTER INC,119 LONGWOOD DR SW,HUNTSVILLE,AL,358014522,,34.71861037,-86.57891949,2565336488,Dec-49,,,,,,,,,,,,,,,,,,,,,,,
01C0001020,1750499950,MEDPLEX OUTPATIENT SURGERY CENTER,4511 SOUTHLAKE PARKWAY,BIRMINGHAM,AL,352443238,73,33.5206824,-86.8024326,2059854398,Dec-49,15-01,TRUE,,55048,4,,,,,,,,,,,,,,,,,,
,1932298718,OUTPATIENT SERVICES EAST,52 MEDICAL PARK DRIVE EAST,BIRMINGHAM,AL,352353442,,33.5964213,-86.6664845,2058383888,Dec-49,,,,,,,,,,,,,,,,,,,,,,,
,1881618403,BAY EYES SURGERY CENTER,411 NORTH SECTION STREET,FAIRHOPE,AL,365322649,,30.54003228,-87.89906393,2519903937,Dec-49,,,,51557682,,,,TRUE,,,,,5,,,,,,,,,,
,1538117841,"SHELBY BAPTIST AMBULATORY SURGERY CENTER, LLC",1010 1ST ST N,ALABASTER,AL,350070488,,33.25163794,-86.81484797,2056208400,Dec-49,,,,,,,,,,,,,,,,,,,,,,,
,1669481255,SURGERY CENTER OF CULLMAN LLC,1403 WALL STREET NE,CULLMAN,AL,350556022,,34.1335332,-86.8779268,2567362811,Dec-49,,,,,,,,,,,,,,,,,,,,,,,
,1306877261,NORTHEAST ALABAMA EYE SURGERY CENTER,314 S 5TH ST,GADSDEN,AL,359014224,,34.01039638,-86.00681008,2565478634,Dec-49,,,,,,,,TRUE,,,,,5,,,,,,,,,,
01C0001026,1457331274,MONTGOMERY EYE SURGERY CENTER LLC,2752 ZELDA RD,MONTGOMERY,AL,361062694,,32.36312372,-86.26632643,3342709677,Dec-49,,,,29207,,,,TRUE,,,,,5,,,,,,,,,,
,1356321293,"THE SURGERY CENTER, L.L.C.",1440 HIGHWAY DRIVE,OXFORD,AL,362031951,,33.61457747,-85.81318695,2562412230,Dec-49,,,,490004552,,,,,,,,,,,,,,,,,,,
,1265657258,"EYE SURGERY CENTER OF NORTH ALABAMA, INC.",3501 MEMORIAL PKWY SW,HUNTSVILLE,AL,358016900,,34.7262736,-86.5965038,2567043937,Dec-49,,,,,,,,TRUE,,,,,5,,,,,,,,,,
,1003815242,"DOTHAN SURGERY CENTER, LLC",1450 ROSS CLARK CIR,DOTHAN,AL,363014736,,31.20022909,-85.36910981,3347933442,Dec-49,,,,,,,,,,,,,,,,,,,,,,,
,1962467951,GADSDEN SURGERY CENTER LP,418 S 5TH ST,GADSDEN,AL,359015102,,34.00845871,-86.00743723,2565431253,Dec-49,,,,000055039GAD,,,,,,,,,,,,,,,,,,,
,1972568830,"FLORENCE SURGERY CENTER, LP",103 HELTON CT,FLORENCE,AL,356301464,,34.8317028,-87.66614735,2567600672,Dec-49,,,,490002768,,,,,,,,,,,,,,,,,,,
,1720044522,SURGICARE OF MOBILE LTD,2890 DAUPHIN ST,MOBILE,AL,366062457,,30.6897077,-88.1110639,2514732020,Dec-49,,,,490002146,,,,,,,,,,,,,,,,,,,
,1386782787,DECATUR SURGERY CENTER LP,2828 HIGHWAY 31 SOUTH,DECATUR,AL,356031510,,34.6240205,-87.05791873,2563401212,Dec-49,,,,D671,,,,,,,,,,,,,,,,,,,
,1285690073,BIRMINGHAM OUTPATIENT SURGERY CENTER LTD,2720 UNIVERSITY BLVD,BIRMINGHAM,AL,352333408,,33.50954776,-86.78936429,2059330050,Dec-49,,,,490000186,,,,,,,,,,,,,,,,,,,
,1376634683,"MONTGOMERY SURGICAL CENTER, LTD",470 TAYLOR RD,MONTGOMERY,AL,361173563,,32.38810187,-86.17600018,3342904530,Dec-49,,,,55031,,,,,,,,,,,,,,,,,,,
,1588854772,"ALABAMA DIGESTIVE HEALTH ENDOSCOPY CENTER, LLC",2010 BROOKWOOD MEDICAL CTR DR,BIRMINGHAM,AL,352096804,,33.464378,-86.7760958,2058771192,Dec-49,,,,011051ASCA,,,,,,,,,,,,,,,,,,,
,1275725673,GASTROENTEROLOGY CONSULTANTS OF TUSCALOOSA INC,100 RICE MINE RD N,TUSCALOOSA,AL,354063901,,33.227352,-87.536992,2053450010,Dec-49,,,,55054,,,,,,,,,,,,,,,,,,,
,1336375930,"JACKSON SURGERY CENTER, LLC",1725 PARK PL,MONTGOMERY,AL,361061123,,32.36870447,-86.2851538,3342938484,Dec-49,,,,,,,,,,,,,,,,,,,,,,,
,1730318353,"GARDENDALE SURGICAL ASSOCIATES, LLC",2213 DECATUR HIGHWAY,GARDENDALE,AL,350712301,,33.67695771,-86.81975392,2054186021,Dec-49,,,,,,,,,,,,,,,,,,,,,,,
,1972805299,"ST. VINCENT'S OUTPATIENT SURGERY SERVICES, LLC",810 SAINT VINCENT'S DRIVE,BIRMINGHAM,AL,352051601,,33.50749325,-86.78806757,2059302468,Dec-49,,,,,,,,,,,,,,,,,,,,,,,
,1700884608,SPRINGHILL SURGERY CENTER,3701 DAUPHIN ST,MOBILE,AL,366081756,,30.68580473,-88.13286416,2513413405,Dec-49,,,,55050,,,,,,,,,,,,,,,,,,,
,1841342789,SURGERY CENTER JV,721 MADISON ST SE,HUNTSVILLE,AL,358014408,,34.729847,-86.5859011,2565334888,Dec-49,,,,,,,,,,,,,,,,,,,,,,,
,1013924133,"TRINITY DEVELOPMENT, LLC",201 E WATTS ST,ENTERPRISE,AL,363301812,,31.319584,-85.855448,3343935474,Dec-49,,,,,,,,,,,,,,,,,,,,,,,
,1699139915,"CUTANEOUS ONCOLOGY & SURGERY CENTER, LLC",1940 STONEGATE DR STE 140,VESTAVIA HLS,AL,352422541,,33.4487989,-86.7879492,2059683919,Dec-49,,,,,,,,,,,,,,,,,,,,,,,
,1891295275,FRESENIUS VASCULAR CARE MONTGOMERY ASC LLC,1501 FOREST AVE,MONTGOMERY,AL,361061539,,32.364414,-86.286281,3343283873,Dec-49,,,,,,,,,,,,,,,,,,,,,,,
,1508360181,NEPHROLOGY VASCULAR LAB OF CENTRAL ALABAMA ASC LLC,1280 COLUMBIANA RD STE 120,VESTAVIA HILLS,AL,352161642,,33.4406041,-86.8082067,2059165201,Dec-49,,,,,,,,,,,,,,,,,,,,,,,
,1225579485,SUNRISE SKIN CANCER SURGERY CENTER LLC,70 MIDTOWN PARK E STE A,MOBILE,AL,366064140,,30.687066,-88.119886,2515446407,Dec-49,,,,,,,,,,,,,,,,,,,,,,,
,1306320338,ALABAMA EYE SURGERY CENTER LLC,5937 W MAIN ST,DOTHAN,AL,363059317,,31.23981882,-85.48386377,3344460872,Dec-49,,,,,,,,TRUE,,,,,5,,,,,,,,,,
,1669031886,"SURGICAL CLINIC SOLUTIONS, LLC",1021 MONTGOMERY HWY,VESTAVIA HILLS,AL,352162805,,33.43909945,-86.78898503,2058246250,Dec-49,,,,,,,,,,,,,,,,,,,,,,,
,1225698681,AFFINITY GASTROENTEROLOGY ASC LLC,3686 GRANDVIEW PKWY STE 610,BIRMINGHAM,AL,352433406,,33.4402768,-86.7219492,2059713700,Dec-49,,,,,,,,,,,,,,,,,,,,,,,
,1306476197,EAMC-LANIER AMBULATORY SURGERY CENTER LLC,4800 48TH ST,VALLEY,AL,368543666,,32.8245339,-85.16893898,3347569180,Dec-49,,,,,,,,,,,,,,,,,,,,,,,
,1982055638,INVISION OPHTHALMOLOGY PC,2100 DEVEREUX CIR STE 100,VESTAVIA,AL,352432557,,33.428249,-86.741022,2058792221,Dec-49,,,102G180936,,,,,,,,,,,,,,,,,,,,
,1275113011,"SEES GROUP ALABAMA, LLC",200 WILDWOOD PKWY STE 100,HOMEWOOD,AL,352097300,,33.44966567,-86.82493175,2059434600,Dec-49,,,,,,,,,,,,,,,,,,,,,,,
,1588603351,PHYSICIANS DAY SURGERY CENTER,17200 CHENAL PKWY STE 440,LITTLE ROCK,AR,722235970,,34.8099297,-92.4893544,8705364100,Dec-49,,,,,,,,,,,,,,,,,,,,,,,
,1396727418,ENDOSCOPY CENTER OF LITTLE ROCK LLC,4200 N RODNEY PARHAM RD,LITTLE ROCK,AR,722122460,,34.79032362,-92.39779795,5012284445,Dec-49,,,,,,,,,,,,,,,,,,,,,,,
,1134177256,SPRING CREEK SURGERY CENTER LLC,3633 CENTRAL AVENUE,HOT SPRINGS,AR,719136475,,34.46765654,-93.05943202,5016237609,Dec-49,,,,11054,,,,,,,,,,,,,,,,,,,
,1114906393,PHYSICIANS SURGERY CENTER LLC,3327 S DIVISION ST,BLYTHEVILLE,AR,723155123,,35.9075614,-89.9186741,8707621942,Dec-49,,,,,,,,,,,,,,,,,,,,,,,
04C0001029,1780658245,BOOZMAN-HOF EYE SURGERY & LASER CENTER,3737 WEST WALNUT,ROGERS,AR,727561839,7,36.3320197,-94.1185366,4792461751,Dec-49,15-01,TRUE,,11029,6,,,TRUE,,,,,5,,,,,,,,,,
,1063470730,ENDOSCOPY CENTER OF ARKANSAS LLC,1024 N UNIVERSITY AVE,LITTLE ROCK,AR,722076347,,34.76064863,-92.34104851,5015370900,Dec-49,,,,,,,,,,,,,,,,,,,,,,,
,1063415891,"HARRISON SURGERY CENTER, LLC",105 SAWGRASS PT,HARRISON,AR,726013072,,39.2820223,-80.3789878,8707419700,Dec-49,,,,11061,,,,,,,,,,,,,,,,,,,
04C0001019,1922070911,FAYETTEVILLE ASC LLC,3344 N FUTRALL DR,FAYETTEVILLE,AR,727034057,,36.1120667,-94.15588444,4795827280,Dec-49,,,,490003242,,,,,,,,,,,,,,,,,,,
,1265439632,"CONWAY ENDOSCOPY CENTER, INC.",455 HOGAN LN,CONWAY,AR,720348201,,35.08420199,-92.49829448,5017641960,Dec-49,,,,490005155,,,,,,,,,,,,,,,,,,,
,1902860679,"VISION GROUP ASC, LLC",3002 ROGERS AVE,FORT SMITH,AR,729014232,,35.37495159,-94.39978808,4797828892,Dec-49,,,,,,,,,,,,,,,,,,,,,,,
,1659340404,LITTLE ROCK SURGERY CENTER LLC,8820 KNOEDL CT,LITTLE ROCK,AR,722054600,,34.7478431,-92.37308012,5012246767,Dec-49,,,,11006,,,,,,,,,,,,,,,,,,,
,1669424339,ARKANSAS GASTROENTEROLOGY ENDOSCOPY CENTER,151 MCGOWAN CT,HOT SPRINGS,AR,719136451,,34.46985382,-93.06577835,5016234101,Dec-49,,,,,,,,,,,,,,,,,,,,,,,
,1710931134,"NOVAMED SURGERY CENTER OF JONESBORO, LLC",601 E MATTHEWS AVE,JONESBORO,AR,724013145,,35.835641,-90.699384,8709356396,Dec-49,,,,11012,,,,,,,,,,,,,,,,,,,
,1386737021,"ARKANSAS OUTPATIENT EYE SURGERY, LLC",3689 N STEELE BLVD,FAYETTEVILLE,AR,727035347,,36.0625843,-94.1574328,4792496006,Dec-49,,,,11068,,,,TRUE,,,,,5,,,,,,,,,,
,1730132853,OUTPATIENT SURGERY CENTER INC,160 HIGHWAY 201 N,MOUNTAIN HOME,AR,726533158,,36.3361391,-92.3801187,8704242020,Dec-49,,,,,,,,,,,,,,,,,,,,,,,
,1922068295,"ARKANSAS SURGERY AND ENDOSCOPY CENTER, INC",4800 HAZEL STREET,PINE BLUFF,AR,716036860,,34.18141526,-92.02445665,8705364800,Dec-49,,,,11004,,,,,,,,,,,,,,,,,,,
,1487776365,SEYMOUR OPERATIONS LLC,200 N VAN BUREN ST,LITTLE ROCK,AR,722053650,,34.7555919,-92.330235,5019070970,Dec-49,,,,11072,,,,,,,,,,,,,,,,,,,
04C0001075,1619037066,SOUTH ARKANSAS SURGERY CENTER,2704 VINE STREET,EL DORADO,AR,717306700,139,33.2115087,-92.6650144,8703075016,Dec-49,15-01,TRUE,,11075,6,,,,,,,,,,,,,,,,,,
,1093799405,ORTHOARKANSAS SURGERY CENTER LLC,10301 KANIS RD,LITTLE ROCK,AR,722056205,,34.742823,-92.38882808,5016044150,Dec-49,,,,,,,,TRUE,,,,,,,,5,,,,,,,
,1093795031,ARKANSAS OTOLARYNGOLOGY CENTER PA,10201 KANIS RD,LITTLE ROCK,AR,722056203,,34.742781,-92.3879,5012275050,Dec-49,,,,11002,,,,,,,,,,,,,,,,,,,
,1629108949,CHRIS TAYLOR COSMETICS PA,1425 ROCK SPRINGS RD,HARRISON,AR,726018933,,36.25578127,-93.12514743,8707411616,Dec-49,,,,,,,,,,,,,,,,,,,,,,,
,1023057916,PHYSICIANS DAY SURGERY CENTER,2705 S ORLANDO ST,PINE BLUFF,AR,716034718,,34.20267772,-92.04407499,8705364100,Dec-49,,,,,,,,,,,,,,,,,,,,,,,
,1265404669,"NORTH RIVER SURGERY CENTER, LLC",2209 WILDWOOD AVE,SHERWOOD,AR,721205074,,34.81426529,-92.20600329,5018345777,Dec-49,,,,,,,,,,,,,,,,,,,,,,,
,1922016898,JAMES TRICE MD PA,7005 S HAZEL ST,PINE BLUFF,AR,716037833,,34.15252519,-92.02408206,8705363070,Dec-49,,,,,,,,,,,,,,,,,,,,,,,
,1215919329,GASTRO-INTESTINAL CENTER INC,405 N UNIVERSITY AVE,LITTLE ROCK,AR,722053108,,34.75465926,-92.34127118,5016631074,Dec-49,,,,,,,,,,,,,,,,,,,,,,,
,1437110293,ST. VINCENT-ARKANSAS ORTHOPAEDIC SURGERY CENTER LLC,6119 MIDTOWN AVE,LITTLE ROCK,AR,722055340,,34.74860054,-92.34295893,5015539827,Dec-49,,,,11040,,,,TRUE,,,,,,,,5,,,,,,,
,1235376104,GASTROENTEROLOGY & SURGERY CENTER OF ARKANSAS II LLC,401 COMMERCE ST,LITTLE ROCK,AR,722056414,,34.738611,-92.267285,6153456900,Dec-49,,,,,,,,,,,,,,,,,,,,,,,
,1326228370,"ADVANCED AMBULATORY SURGERY CENTER, LLC",1444 E STEARNS ST,FAYETTEVILLE,AR,727034969,,36.0625843,-94.1574328,4799664972,Dec-49,,,,5G286,,,,,,,,,,,,,,,,,,,
,1053301473,BAKER AMBULATORY SURGERY CENTER,810 MERRIMAN ST,CONWAY,AR,720324436,,35.0926176,-92.432216,5013293937,Dec-49,,,,,,,,,,,,,,,,,,,,,,,
,1790742328,"SPRINGHILL SURGERY CENTER, LLC",3401 SPRINGHILL DR,NORTH LITTLE ROCK,AR,721172934,,34.784106,-92.218784,5019455800,Dec-49,,,,,,,,,,,,,,,,,,,,,,,
,1922187103,NORTH HILLS SURGERY CENTER LLC,3271 N WIMBERLY DR,FAYETTEVILLE,AR,727034033,,36.1109252,-94.15519169,4797136100,Dec-49,,,,,,,,,,,,,,,,,,,,,,,
,1215994280,SLOAN EYE CLINIC,10 HOSPITAL CIR,BATESVILLE,AR,725017310,,35.769799,-91.6409722,8707934040,Dec-49,,,,11008,,,,TRUE,,,,,5,,,,,,,,,,
,1245297829,"THE SURGERY CENTER, LLC",9500 KANIS RD,LITTLE ROCK,AR,722056377,,34.742739,-92.379644,5012279088,Dec-49,,,,,,,,,,,,,,,,,,,,,,,
,1457379364,"JONESBORO SURGERY CENTER, LLC",623 E MATTHEWS AVE,JONESBORO,AR,724013157,,35.83563933,-90.69906927,8709348010,Dec-49,,,,11048,,,,,,,,,,,,,,,,,,,
,1598758153,OUTPATIENT SURGERY CENTER OF JONESBORO LLC,1100 E MATTHEWS AVE,JONESBORO,AR,724014314,,35.8364202,-90.6926564,8709358500,Dec-49,,,,11053,,,,,,,,,,,,,,,,,,,
,1992034763,"CENTRAL ARKANSAS SURGICAL CENTER, LLC",151 EAST ASPEN LN,RUSSELLVILLE,AR,728028903,,35.30753435,-93.13649334,4799671117,Dec-49,,,,,,,,,,,,,,,,,,,,,,,
,1447212204,CONWAY OUTPATIENT SURGERY CENTER,1377 HWY 64 WEST,CONWAY,AR,720322778,,35.2521996,-92.6888936,5013369629,Dec-49,,,O41034,,,,,,,,,,,,,,,,,,,,
,1578643607,PAIN CENTER LLC,505 E MATTHEWS AVE,JONESBORO,AR,724013101,,35.83566392,-90.70123188,8709720411,Dec-49,,,,,,,,,,,,,,,,,,,,,,,
,1114951365,"DOCTORS SURGERY CENTER, PA",303 W POLK,WEST MEMPHIS,AR,723014235,,35.1464797,-90.1845388,8707322100,Dec-49,,,,11020,,,,,,,,,,,,,,,,,,,
,1598068306,"EXECUTIVE PARK SURGERY CENTER OF FORT SMITH, INC",3314 S 70TH ST,FORT SMITH,AR,729035052,,35.35119686,-94.35583783,4794242744,Dec-49,,,,APPLIED FOR,,,,,,,,,,,,,,,,,,,
,1275574154,DOCTORS SURGERY CENTER OF TEXARKANA,3211 SUGAR HILL ROAD,TEXARKANA,AR,718549219,,33.48890643,-94.00747661,8707724440,Dec-49,,,,11030,,,,,,,,,,,,,,,,,,,
,1053685677,ARKANSAS CENTER FOR SURGICAL EXCELLENCE,208 MCAULEY CT,HOT SPRINGS,AR,71913,,34.46684631,-93.07336445,5016234485,Dec-49,,,,,,,,,,,,,,,,,,,,,,,
,1225398480,TRI STATE ADVANCED SURGERY CENTER LLC,2596 INTERSTATE 55,MARION,AR,723642327,,35.2137707,-90.2069651,8705592006,Dec-49,,,,,,,,,,,,,,,,,,,,,,,
,1093907339,"TAYLOR SURGERY CENTER, LLC",3733 N BUSINESS DR STE 101,FAYETTEVILLE,AR,727035286,,36.1186956,-94.1311803,4795211500,Dec-49,,,,,,,,,,,,,,,,,,,,,,,
,1073888103,SURGERY BY VOLD VISION,2783 N SHILOH DR,FAYETTEVILLE,AR,727046983,,36.10272155,-94.18390293,4794428653,Dec-49,,,,,,,,,,,,,,,,,,,,,,,
,1043565542,MAGNOLIA SURGERY CENTER LLC,25 COLUMBIA ROAD 47,MAGNOLIA,AR,717539318,,33.2670725,-93.2393341,8702345665,Dec-49,,,,,,,,,,,,,,,,,,,,,,,
,1205978780,MOUNTAIN HOME SURGERY CENTER,360 HIGHWAY 5 N,MOUNTAIN HOME,AR,726533039,,36.3361391,-92.3801187,8704252277,Dec-49,,,,11017,,,,,,,,,,,,,,,,,,,
,1205266632,ARKANSAS RENAL GROUP PA,115 WRIGHTS ST,HOT SPRINGS NATIONAL PARK,AR,719136240,,34.51802,-93.0529422,5016246000,Dec-49,,,429616,,,,,,,,,,,,,,,,,,,,
,1043625221,"INTERVENTIONAL SURGERY INSTITUTE OF LITTLE ROCK, LLC",9 FREEWAY DRIVE,LITTLE ROCK,AR,722042486,,34.74261767,-92.35574604,8442150731,Dec-49,,,,,,,,,,,,,,,,,,,,,,,
,1043208283,TRACEY A SCHMUCKER MD PA,105 CENTRAL AVENUE,SEARCY,AR,721437329,,35.23637209,-91.73794174,5012687154,Dec-49,,,,474406,,,,,,,,,,,,,,,,,,,
,1629404918,CENTRAL ARKANSAS SURGERY CENTER LLC,100 N FILLMORE ST,LITTLE ROCK,AR,722053322,,34.7683984,-92.3371086,5012270184,Dec-49,,,,,,,,,,,,,,,,,,,,,,,
,1588802987,NATIONAL PARK ENDOSCOPY CENTER LLC,124 SAWTOOTH OAK ST.,HOT SPRINGS,AR,719017160,,34.4891868,-93.0361832,5016237800,Dec-49,,,,564603,,,,,,,,,,,,,,,,,,,
,1548712227,ARKANSAS OUTPATIENT SURGERY CENTER LLC,4331 W. 43RD,NORTH LITTLE ROCK,AR,721172940,,34.769536,-92.2670941,5012319682,Dec-49,,,,,,,,,,,,,,,,,,,,,,,
,1639615297,SURGERY CENTER AT THE RESERVE PA INC,2241 HILLPARK COVE,JONESBORO,AR,724016251,,35.8272257,-90.6949871,8703335747,Dec-49,,,,,,,,,,,,,,,,,,,,,,,
,1376092205,ADVANCED INTERVENTIONAL PAIN SURGERY CENTER LLC,1717 MALVERN AVENUE,HOT SPRINGS,AR,719017133,,34.48970369,-93.03599987,5013214772,Dec-49,,,,,,,,,,,,,,,,,,,,,,,
,1194209437,"PRECISION SURGICAL CENTER OF NORTHWEST ARKANSAS, LLC",3728 S PINNACLE HILLS PKWY,ROGERS,AR,727587031,,36.30345399,-94.1893707,4797903328,Dec-49,,,,,,,,,,,,,,,,,,,,,,,
,1538635859,SEARCY AMBULATORY SURGERY CENTER LLC,1115 S MAIN ST,SEARCY,AR,721437318,,35.23727357,-91.7343529,5017736993,Dec-49,,,,,,,,,,,,,,,,,,,,,,,
,1073079596,PREMIER GASTROENTEROLOGY ASSOCIATES PLLC,10915 RODNEY PARHAM RD,LITTLE ROCK,AR,722124114,,34.78627,-92.401934,5017472828,Dec-49,,,,,,,,,,,,,,,,,,,,,,,
,1356817910,ST VINCENT INFIRMARY MEDICAL CENTER,10001 LILE DR,LITTLE ROCK,AR,722056217,,34.74682379,-92.38626555,5012278000,Dec-49,,,,,,,,,,,,,,,,,,,,,,,
,1609399963,INTERVENTIONAL SURGERY INSTITUTE OF WHITE HALL LLC,7211 DOLLARWAY ROAD,WHITE HALL,AR,716023020,,34.26240547,-92.08282957,5017736993,Dec-49,,,,,,,,,,,,,,,,,,,,,,,
,1285283432,JONESBORO AMBULATORY SURGERY CENTER LLC,1710 MAYFIELD DR,JONESBORO,AR,724014563,,35.8159439,-90.6885714,5015541273,Dec-49,,,,,,,,,,,,,,,,,,,,,,,
,1487122669,"CONWAY CARDIOVASCULAR SURGERY CENTER, LLC",650 UNITED DR STE 120,CONWAY,AR,720327826,,35.0580817,-92.4206232,5012058389,Dec-49,,,,,,,,,,,,,,,,,,,,,,,
,1346878303,HOT SPRINGS AMBULATORY SURGERY CENTER LLC,148 SAWTOOTH OAK ST,HOT SPRINGS,AR,719017160,,34.4891868,-93.0361832,5013929065,Dec-49,,,,,,,,,,,,,,,,,,,,,,,
,1477178879,"SURGCENTER OF FAYETTEVILLE, LLC",1905 E MISSION BLVD STE 5,FAYETTEVILLE,AR,727033129,,36.08639765,-94.1330464,5015541273,Dec-49,,,,,,,,,,,,,,,,,,,,,,,
,1629675285,ORTHOARKANSAS SPINE INSTITUTE PROCEDURE CENTER LLC,800 FAIR PARK BLVD STE 300,LITTLE ROCK,AR,722041720,,34.744464,-92.334431,5018135621,Dec-49,,,,,,,,TRUE,,,,,,,,5,,,,,,,
03C0001266,1851516728,"PHOENIX ENDOSCOPY, LLC",349 EAST CORONADO ROAD,PHOENIX,AZ,850041525,13,33.4671593,-112.0668896,6022665678,Dec-49,15-01,TRUE,,Z76901,9,,,,,,,,,,,,,,,,,,
03C0001265,1306843222,"ST. JOSEPH'S OUTPATIENT SURGERY CENTER, LLC","240 WEST THOMAS ROAD, SUITE A",PHOENIX,AZ,850134407,13,33.48152195,-112.0778178,6024063552,Dec-49,15-01,TRUE,,Z76921,9,,,,,,,,,,,,,,,,,,
,1497727093,JAMES A TAMMARO MD PC,40 CAPRI BLVD,LAKE HAVASU CITY,AZ,864035661,,34.477521,-114.3410279,9288559477,Dec-49,,,,Z3C0001024,,,,,,,,,,,,,,,,,,,
,1427029396,MAYO CLINIC ARIZONA,13400 E SHEA BLVD,SCOTTSDALE,AZ,852595499,,33.58561,-111.7943835,4803018000,Dec-49,,,,Z360001087,,,,,,,,,,,,,,,,,,,
,1265536270,CIGNA HEALTHCARE OF ARIZONA INC,755 E MCDOWELL RD,PHOENIX,AZ,850123031,,33.46562968,-112.0627777,6022713020,Dec-49,,,,ZWCKHL,,,,,,,,,,,,,,,,,,,
,1013021682,PHOENIX EYE SURGICAL CENTER PLC,5133 N CENTRAL AVE,PHOENIX,AZ,850121438,,33.51237075,-112.0733614,6022790044,Dec-49,,,,,,,,TRUE,,,,,5,,,,,,,,,,
,1205821097,"ADOBE SURGERY CENTER, PC",2585 N WYATT DR,TUCSON,AZ,857126104,,32.25427511,-110.8821487,5207212728,Dec-49,,,,,,,,,,,,,,,,,,,,,,,
,1023015989,"TUCSON GASTROENTEROLOGY INSTITUTE, LLC",3040 N. SWAN ROAD,TUCSON,AZ,857121206,,32.26317036,-110.8923197,5203273454,Dec-49,,,,,,,,,,,,,,,,,,,,,,,
,1437191731,EL DORADO SURGERY CENTER LP,1398 N WILMOT RD,TUCSON,AZ,857125132,,32.239675,-110.857786,5208774254,Dec-49,,,,Z65166,,,,,,,,,,,,,,,,,,,
,1164414447,EAST VALLEY ENDOSCOPY LLC,6020 E ARBOR AVE,MESA,AZ,852066102,,33.41418975,-111.7014046,4808302005,Dec-49,,,,,,,,,,,,,,,,,,,,,,,
03C0001021,1578535233,"EYE INSTITUTE AT BOSWELL, THE",10541 WEST THUNDERBIRD BOULEVARD,SUN CITY,AZ,853513006,13,33.60489925,-112.2857855,6239333402,Dec-49,15-01,TRUE,,Z23095,9,,,TRUE,,,,,5,,,,,,,,,,
,1245239656,"SURGERY CENTER OF GILBERT, LLC",6003 E BASELINE RD,MESA,AZ,852064815,,33.379212,-111.7564635,4806416500,Dec-49,,,,Z71724,,,,,,,,,,,,,,,,,,,
,1336131143,PHOENIX ORTHOPAEDIC AMBULATORY CENTER LLC,690 N COFCO CENTER CT,PHOENIX,AZ,850086469,,33.45651056,-111.9896369,6022884441,Dec-49,,,,72598,,,,TRUE,,,,,,,,5,,,,,,,
,1750352324,SUNRISE AMBULATORY SURGICAL CENTER LLC,5448 WHITE MOUNTAIN BLVD STE 100,LAKESIDE,AZ,859295736,,34.19062785,-110.0162157,9285323010,Dec-49,,,,,,,,,,,,,,,,,,,,,,,
,1346469731,"AKDHC SURGERY CENTER, LLC",3333 E CAMELBACK RD STE 180,PHOENIX,AZ,850122319,,33.5095387,-112.0089447,6029971098,Dec-49,,,,,,,,,,,,,,,,,,,,,,,
,1821166521,PHYSICIANS SURGERY CENTER LLC,1800 HIGHWAY 95,BULLHEAD CITY,AZ,864426803,,35.1477774,-114.568298,9287638443,Dec-49,,,,,,,,,,,,,,,,,,,,,,,
,1710942370,SCOTTSDALE ENDOSCOPY CENTER PLC,9787 N 91ST ST,SCOTTSDALE,AZ,852585088,,33.57465354,-111.8828715,4806570889,Dec-49,,,,Z69160,,,,,,,,,,,,,,,,,,,
Z3C0001063,1295710002,SCOTTSDALE EYE SURGERY CENTER PC,8414 N 90TH ST,SCOTTSDALE,AZ,85258,,33.5566105,-111.889035,4809491208,Dec-49,,,,,,,,TRUE,,,,,5,,,,,,,,,,
,1518969773,ARIZONA SKIN CANCER SURGERY CENTER PC,5980 N LA CHOLLA BLVD,TUCSON,AZ,857413535,,32.2282767,-111.0117406,5208873333,Dec-49,,,G65433,Z100219,,,,,,,,,,,,,,,,,,,
,1144333881,NORTH SCOTTSDALE AMBULATORY SURGERY CENTER LLC,9439 E IRONWOOD SQUARE DR STE 100,SCOTTSDALE,AZ,852584573,,33.57761175,-111.8779886,4803553750,Dec-49,,,,,,,,,,,,,,,,,,,,,,,
03C0001080,1972578771,SUN CITY ENDOSCOPY CENTER,"13640 NORTH 99TH AVENUE, SUITE 700",SUN CITY,AZ,853512867,13,33.60565495,-112.2688843,6239725083,Dec-49,15-01,TRUE,,Z100859,9,,,,,,,,,,,,,,,,,,
,1285767822,ARIZONA SURGICAL SPECIALISTS CENTER LLC,1984 E BASELINE RD,TEMPE,AZ,852831535,,33.37837206,-111.9013591,4802371234,Dec-49,,,,Z102423,,,,,,,,,,,,,,,,,,,
03C0001278,1770557233,DESERT ENDOSCOPY CENTER,"603 EAST BASELINE ROAD, SUITE 101",MESA,AZ,85210,13,33.37879023,-111.8194482,4809690405,Dec-49,15-01,TRUE,,Z102428,9,,,,,,,,,,,,,,,,,,
,1336272657,"ARIZONA DIGESTIVE CENTER, P.C.",8761 E BELL RD,SCOTTSDALE,AZ,852601316,,33.63999061,-111.8920891,4802196662,Dec-49,,,104621,,,,,,,,,,,,,,,,,,,,
,1154326650,"SCOTTSDALE SURGICAL PARTNERS, LLC",8901 E. RAINTREE DR.,SCOTTSDALE,AZ,852607026,,33.617918,-111.8878806,4807672100,Dec-49,,,,,,,,,,,,,,,,,,,,,,,
,1073588356,DIGESTIVE HEALTH SPECIALISTS ENDOSCOPY CENTER ARIZONA LLC,8573 E PRINCESS DR,SCOTTSDALE,AZ,852557819,,33.6454087,-111.8944409,4805635757,Dec-49,,,,Z105880,,,,,,,,,,,,,,,,,,,
,1609930676,"BAYWOOD MEDICAL ASSOCIATES, PLLC",6309 E BAYWOOD AVE,MESA,AZ,852061744,,33.41035428,-111.694434,4803253801,Dec-49,,,,,,,,,,,,,,,,,,,,,,,
,1649223124,CAMP LOWELL SURGERY CENTER LLC,4620 EAST CAMP LOWELL DRIVE,TUCSON,AZ,857121296,,32.26509771,-110.8940879,5206186058,Dec-49,,,,03C0001290,,,,,,,,,,,,,,,,,,,
,1720125156,SCOTTSDALE EYE INSTITUTE PLC,215 S POWER RD STE 112,MESA,AZ,852065235,,33.4119374,-111.6820116,4809811345,Dec-49,,,,P00283401,,,,TRUE,,,,,5,,,,,,,,,,
03C0001016,1992706899,"SURGERY CENTER OF PEORIA, LLC","13260 NORTH 94TH DRIVE, SUITE 200",PEORIA,AZ,853814240,13,33.60725379,-112.2627396,6239332900,Dec-49,15-01,TRUE,,Z23308,9,,,,,,,,,,,,,,,,,,
03C0001247,1902807159,MOUNTAIN VIEW SURGERY CENTER OF SCOTTSDALE,8962 EAST DESERT COVE AVENUE,SCOTTSDALE,AZ,852606984,13,33.58534964,-111.8875935,4806615232,Dec-49,15-01,TRUE,,Z67641,9,,,,,,,,,,,,,,,,,,
,1417994831,CATALINA SURGERY CENTER LLC,7508 N LA CHOLLA BLVD,TUCSON,AZ,857412307,,32.2282767,-111.0117406,5205477450,Dec-49,,,,,,,,,,,,,,,,,,,,,,,
,1437101433,TRI CITY SURGERY CENTER LLC,5430 DISTINCTION WAY,PRESCOTT,AZ,863018436,,34.63229685,-112.4231809,9284451919,Dec-49,,,,Z110585,,,,,,,,,,,,,,,,,,,
,1760445928,ARIZONA ENDOSCOPY CENTER LLC,1410 E MCDOWELL RD,PHOENIX,AZ,850062937,,33.46597945,-112.0514071,6027169655,Dec-49,,,,Z61044,,,,,,,,,,,,,,,,,,,
,1114140019,KOKOPELLI EYE CARE PC,412 WHIPPLE ST,PRESCOTT,AZ,863011712,,34.55695476,-112.4738199,9287719000,Dec-49,,,,Z110504,,,,TRUE,,,,,5,,,,,,,,,,
,1043239338,NORTH VALLEY ENDOSCOPY CENTER LLC,15255 N 40TH STREET,PHOENIX,AZ,850324624,,33.625078,-111.9943468,6024821001,Dec-49,,,,110639,,,,,,,,,,,,,,,,,,,
,1548203888,NORTH VALLEY ORTHOPEDIC SURGERY CENTER LLC,2262 E. ROSE GARDEN LANE,PHOENIX,AZ,850244497,,33.67732745,-112.0325558,6024244408,Dec-49,,,,112571,,,,TRUE,,,,,,,,5,,,,,,,
,1750312435,CENTRAL ARIZONA ENDOSCOPY LLC,2158 N GILBERT RD,MESA,AZ,852032109,,33.46521583,-111.7836561,4807513002,Dec-49,,,,111352,,,,,,,,,,,,,,,,,,,
,1801825880,SURGERY CENTER AT RIVER ROAD LLC,2490 E. RIVER ROAD,TUCSON,AZ,857186522,,32.28669356,-110.9371139,5203821084,Dec-49,,,,,,,,,,,,,,,,,,,,,,,
,1710047188,ARROWHEAD ENDOSCOPY AND PAIN MANAGEMENT CENTER LLC,18699 N 67TH AVE,GLENDALE,AZ,853087144,,33.654765,-112.202866,6233768600,Dec-49,,,,Z113718,,,,,,,,,,,,,,,,,,,
03C0001305,1992713176,DESERT RIDGE OUTPATIENT SURGERY CENTER,"20940 NORTH TATUM BOULEVARD, SUITE 100",PHOENIX,AZ,850507259,13,33.6756769,-111.979358,4805024000,Dec-49,15-01,TRUE,,Z113883,9,,,,,,,,,,,,,,,,,,
,1043222417,COTTONWOOD DAY SURGERY CENTER,55 S 6TH ST,COTTONWOOD,AZ,863264237,,34.73881345,-112.022643,9286345118,Dec-49,,,E60921,3C0001098,,,,,,,,,,,,,,,,,,,
03C0001027,1760454557,PHOENIX OPHTHALMOLOGY ASC LLC,300 E OSBORN RD,PHOENIX,AZ,850122383,,33.4876915,-112.0692345,6022348478,Dec-49,,,,Z3C0001207,,,,,,,,,,,,,,,,,,,
,1679539688,NORTHERN ARIZONA EYE ASSOCIATES,900 N SAN FRANCISCO ST,FLAGSTAFF,AZ,860013236,,35.2056059,-111.6434491,9287797000,Dec-49,,,,,,,,TRUE,,,,,5,,,,,,,,,,
,1447458591,"ADVANCED PLASTIC SURGERY CENTER, L.L.C.",1615 PETROGLYPH POINT DR,PRESCOTT,AZ,863016539,,34.5399962,-112.468761,9287770200,Dec-49,,,,,,,,TRUE,,,,,,5,,,,,,,,,
,1689755928,"CANYON AMBULATORY SURGERY CENTER, LLC",6036 N 19TH AVE,PHOENIX,AZ,850152103,,33.52583085,-112.1006232,6025898000,Dec-49,,,,,,,,,,,,,,,,,,,,,,,
,1720278047,"ARIZONA INSTITUTE OF EYE SURGERY, LLC",3192 WILLOW CREEK RD,PRESCOTT,AZ,863016610,,34.59878779,-112.4576102,9287783950,Dec-49,,,,,,,,TRUE,,,,,5,,,,,,,,,,
,1922253129,DHHS PHS NAIHS CHINLE COMPREHENSIVE HEALTH CARE FACILITY,HOSPITAL ROAD OFF HIGHWAY 191,CHINLE,AZ,865038000,,36.1501434,-109.5670685,9286747030,Dec-49,,,,,,,,,,,,,,,,,,,,,,,
,1033250618,MCDOWELL AMBULATORY SURGERY CENTER LLC,1301 E MCDOWELL RD,PHOENIX,AZ,850062605,,33.4653893,-112.0536801,6022658800,Dec-49,,,,111804,,,,,,,,,,,,,,,,,,,
,1386823854,THE GLENDALE AZ ENDOSCOPY ASC LLC,5823 W EUGIE AVE,GLENDALE,AZ,853041277,,33.6087686,-112.1847749,6024391717,Dec-49,,,,119952,,,,,,,,,,,,,,,,,,,
,1871570424,ARIZONA DIGESTIVE INSTITUTE LLC,7566 N LA CHOLLA BLVD,TUCSON,AZ,857412307,,32.2282767,-111.0117406,5205475847,Dec-49,,,,Z72866,,,,,,,,,,,,,,,,,,,
,1689843963,"PAIN-MDS AMBULATORY SURGICAL CENTER, LLC",16390 N. 59TH AVE,GLENDALE,AZ,853061706,,33.63423728,-112.185958,6233344000,Dec-49,,,,,,,,,,,,,,,,,,,,,,,
,1699943290,SOUTHEAST VALLEY ENDOSCOPY CENTER LLC,875 S DOBSON RD,CHANDLER,AZ,852245710,,33.2930664,-111.8761448,4808552900,Dec-49,,,,,,,,,,,,,,,,,,,,,,,
,1063693588,SOUTHWEST ENDOSCOPY & SURGICENTER LLC,2223 E BASELINE ROAD,GILBERT,AZ,852342336,,33.377773,-111.7842024,4808355302,Dec-49,,,,,,,,,,,,,,,,,,,,,,,
,1740287168,"AFFILIATED PHYSICIANS & SURGEONS, LTD",6245 N 16TH ST,PHOENIX,AZ,850161706,,33.5290599,-112.0469241,6022741705,Dec-49,,,,Z3C0001092,,,,,,,,,,,,,,,,,,,
,1902958226,"AMBULATORY SURGERY CENTER OF TUCSON, INC.",1502 N TUCSON BLVD,TUCSON,AZ,857163423,,32.241041,-110.9348384,5203264321,Dec-49,,,,Z124418,,,,,,,,,,,,,,,,,,,
,1851531248,"LASER SURGERY HOLDING COMPANY, LTD",10255 N 32ND ST,TEMPE,AZ,852827510,,33.4255056,-111.9400091,6022587003,Dec-49,,,,,,,,,,,,,,,,,,,,,,,
,1083624670,PRESCOTT OUTPATIENT SURGICAL CENTER,815 AINSWORTH DR,PRESCOTT,AZ,863011631,,34.56082658,-112.4798068,9287789770,Dec-49,,,,Z3C0001043,,,,,,,,,,,,,,,,,,,
,1144465410,DOCTORS' OUTPATIENT SURGICAL CENTER,2155 E CONFERENCE DR,TEMPE,AZ,852842604,,33.3423462,-111.895029,4808392020,Dec-49,,,,,,,,,,,,,,,,,,,,,,,
,1871513705,SQUAW PEAK SURGICAL FACILITY INC,1635 E MYRTLE #100,PHOENIX,AZ,850205501,,33.4484367,-112.074141,6029445656,Dec-49,,,,Z22021,,,,,,,,,,,,,,,,,,,
,1487888426,"GYNESURGICAL, LLC",1008 E MCDOWELL RD,PHOENIX,AZ,850062603,,33.4659381,-112.0602728,6022546369,Dec-49,,,,,,,,,,,,,,,,,,,,,,,
,1598996894,SURGICAL ELITE OF AVONDALE LLC,10815 W MCDOWELL RD,AVONDALE,AZ,853925009,,33.463133,-112.2920254,6234330110,Dec-49,,,,,,,,,,,,,,,,,,,,,,,
,1063408649,AIMS OUTPATIENT SURGERY,3636 N STOCKTON HILL RD,KINGMAN,AZ,864090514,,35.189443,-114.0530065,9287573690,Dec-49,,,,Z3C0001093,,,,,,,,,,,,,,,,,,,
,1437120334,"PRESCOTT EYE CARE & SURGICAL CENTER, PC",3192 WILLOW CREEK RD,PRESCOTT,AZ,863016610,,34.59878779,-112.4576102,9287783950,Dec-49,,,,Z3C0001209,,,,TRUE,,,,,5,,,,,,,,,,
,1477886406,"BILTMORE SURGICAL PARTNERS, LLC",19646 N 27TH AVE STE 101,PHOENIX,AZ,850274026,,33.66604779,-112.1173389,6026333061,Dec-49,,,,,,,,,,,,,,,,,,,,,,,
,1073579256,OUTPATIENT SURGICAL CARE LTD,1530 W GLENDALE AVE,PHOENIX,AZ,850218578,,33.53859127,-112.091661,6029953395,Dec-49,,,,,,,,,,,,,,,,,,,,,,,
,1588806756,"NORTH SCOTTSDALE OUTPATIENT SURGERY CENTER, L.L.C.",8913 E BELL RD,SCOTTSDALE,AZ,852601598,,33.63996307,-111.8881281,4808602173,Dec-49,,,,,,,,,,,,,,,,,,,,,,,
,1790711091,PRESCOTT UROCENTER LTD,811 AINSWORTH DR,PRESCOTT,AZ,863011687,,34.56082498,-112.4797817,9287715282,Dec-49,,,,,,,,,,,,,,,,,,,,,,,
,1104894369,VALLEY OUTPATIENT SURGICAL CENTER INC,160 W UNIVERSITY,MESA,AZ,852015833,,33.4151117,-111.8314792,4808357373,Dec-49,,,,,,,,,,,,,,,,,,,,,,,
,1871596114,"NORTHERN ARIZONA SURGICENTER, LLC",1020 N SAN FRANCISCO ST,FLAGSTAFF,AZ,860013281,,35.2060084,-111.6425997,9287743300,Dec-49,,,,,,,,,,,,,,,,,,,,,,,
,1649407180,PAIN MDS INC,2525 W CAREFREE HWY STE 134,PHOENIX,AZ,850856093,,33.79827637,-112.1141978,6235804357,Dec-49,,,,Z136388,,,,,,,,,,,,,,,,,,,
,1073845087,"EYE SURGERY CENTERS OF ARIZONA, LLC",2222 E HIGHLAND AVE STE 101,PHOENIX,AZ,850164874,,33.50621915,-112.0334521,6022792434,Dec-49,,,,,,,,TRUE,,,,,5,,,,,,,,,,
,1649668781,NORTHERN ARIZONA HEALTHCARE ORTHOPEDIC SURGERY CENTER LLC,1485 N TURQUOISE DR,FLAGSTAFF,AZ,860011397,,35.2104502,-111.640692,9287732546,Dec-49,,,,,,,,TRUE,,,,,,,,5,,,,,,,
,1104957869,"PAIN SOLUTIONS CENTER, LLC",15262 N 75TH AVE,PEORIA,AZ,853814762,,33.62378934,-112.2200704,6234861510,Dec-49,,,,,,,,,,,,,,,,,,,,,,,
,1588665269,RF EYE PC,2445 E WILCOX DR,SIERRA VISTA,AZ,856352842,,31.5545973,-110.2997756,5204588131,Dec-49,,,X22364,,,,,TRUE,,,,,5,,,,,,,,,,
,1336107036,"RUMMEL EYE CARE, P.C.",1022 WILLOW CREEK RD,PRESCOTT,AZ,863011607,,34.56095,-112.482295,9284451341,Dec-49,,,,Z3C0001202,,,,TRUE,,,,,5,,,,,,,,,,
,1659343648,SWAGEL-WOOTTON EYE CENTER INC,220 S 63RD ST,MESA,AZ,852061619,,33.41107825,-111.6950961,4806413937,Dec-49,,,,49000264,,,,TRUE,,,,,5,,,,,,,,,,
,1023074291,ARIZONA EYE INSTITUTE & COSMETIC LASER CENTER LLC,19052 N R H JOHNSON BLVD,SUN CITY WEST,AZ,853754401,,33.6577941,-112.3529866,6239752020,Dec-49,,,,P00038520,,,,TRUE,,,,,5,,,,,,,,,,
03C0001328,1811228083,"MESQUITE SURGERY CENTER, LLC",7445 EAST TANQUE VERDE ROAD,TUCSON,AZ,857153477,19,32.25080082,-110.8318512,5207220929,Dec-49,15-01,TRUE,,,9,,,,,,,,,,,,,,,,,,
,1790822864,"NORTHWEST EYE SPECIALISTS, LLC",5599 N ORACLE RD,TUCSON,AZ,857043821,,32.2701799,-110.9780268,5202936740,Dec-49,,,,,,,,TRUE,,,,,5,,,,,,,,,,
,1659683662,"PREMIER ENDOSCOPY CENTER, LLC",2563 S VAL VISTA DRIVE,GILBERT,AZ,852956231,,33.3052743,-111.7554705,4807866655,Dec-49,,,,Z140976,,,,,,,,,,,,,,,,,,,
,1285963058,"AZ PAIN CENTERS OF TUCSON, LLC",6080 N LA CHOLLA BLVD,TUCSON,AZ,857041150,,32.2282767,-111.0117406,5202922723,Dec-49,,,,,,,,,,,,,,,,,,,,,,,
,1831346840,"THE CENTER FOR PAIN RELIEF, LLC",515 E CAREFREE HWY # 1023,PHOENIX,AZ,850086507,,33.4484367,-112.074141,6234861510,Dec-49,,,,,,,,,,,,,,,,,,,,,,,
,1013213156,"EV PAIN SOLUTIONS, LLC",18610 E RITTENHOUSE RD,QUEEN CREEK,AZ,851424504,,33.2839865,-111.682355,6234861510,Dec-49,,,,,,,,,,,,,,,,,,,,,,,
03C0001335,1790093813,"AZ WEST ENDOSCOPY CENTER, LLC","1850 NORTH 95TH AVENUE, SUITE 190",PHOENIX,AZ,850374322,13,33.46766759,-112.2642944,6235944060,Dec-49,15-01,TRUE,,Z147260,9,,,,,,,,,,,,,,,,,,
,1629133442,"ARIZONA SURGICAL ARTS, INC.",1245 N. WILMOT ROAD,TUCSON,AZ,857125154,,32.23832525,-110.857986,5207220909,Dec-49,,,,Z3C0001069,,,,,,,,,,,,,,,,,,,
,1033400619,"SANTAN SURGERY CENTER, LLC",1704 E BOSTON ST,GILBERT,AZ,852956223,,33.3032172,-111.7534323,8315887296,Dec-49,,,,,,,,,,,,,,,,,,,,,,,
,1821366006,SCOTTSDALE SURGERY CENTER,8900 E RAINTREE DR,SCOTTSDALE,AZ,852607307,,33.618614,-111.888624,4807527874,Dec-49,,,,,,,,,,,,,,,,,,,,,,,
03C0001279,1093086183,CHANDLER ENDOSCOPY CENTER,"2095 WEST PECOS ROAD, SUITE A-1",CHANDLER,AZ,852245725,13,33.29127474,-111.8772366,4802929795,Dec-49,15-01,TRUE,,Z153605,9,,,,,,,,,,,,,,,,,,
,1538432844,BARNET DULANEY PERKINS EYE CENTER II PLLC,4800 N 22ND ST STE 100,PHOENIX,AZ,850164962,,33.50647244,-112.0346284,6029551000,Dec-49,,,,,,,,TRUE,,,,,5,,,,,,,,,,
,1306119615,BARNET DULANEY PERKINS EYE CENTER II PLLC,5250 E SOUTHERN AVE,MESA,AZ,852062747,,33.3943556,-111.7180151,6029551000,Dec-49,,,,,,,,TRUE,,,,,5,,,,,,,,,,
,1104199413,BARNET DULANEY PERKINS EYE CENTER II PLLC,14820 N DEL WEBB BLVD,SUN CITY,AZ,853512146,,33.61981963,-112.2909143,6029551000,Dec-49,,,,,,,,TRUE,,,,,5,,,,,,,,,,
,1255604534,BARNET DULANEY PERKINS EYE CENTER II PLLC,698 E WETMORE SUITE 120,TUCSON,AZ,857051752,,32.2862112,-110.9615791,6029551000,Dec-49,,,,,,,,TRUE,,,,,5,,,,,,,,,,
,1407120512,BARNET DULANEY PERKINS EYE CENTER II PLLC,350 N SWITZER CANYON DR,FLAGSTAFF,AZ,860014826,,35.1962257,-111.6341505,6029551000,Dec-49,,,,,,,,TRUE,,,,,5,,,,,,,,,,
,1093088304,BARNET DULANEY PERKINS EYE CENTER II PLLC,95 SOLDIERS PASS RD,SEDONA,AZ,863364781,,34.87787688,-111.7857818,6029551000,Dec-49,,,,,,,,TRUE,,,,,5,,,,,,,,,,
,1093085904,ARIZONA ADVANCED ENDOSCOPY LLC,2680 S VAL VISTA DR,GILBERT,AZ,852952155,,33.30280785,-111.7560469,4802535656,Dec-49,,,,,,,,,,,,,,,,,,,,,,,
,1639431653,DESERT CLIFFS SURGERY CENTER LLC,2250 W SOUTHERN AVE,MESA,AZ,852024736,,33.39345555,-111.8798674,4808355532,Dec-49,,,,,,,,,,,,,,,,,,,,,,,
,1295015212,MOSC LLC,4611 E SHEA BLVD,PHOENIX,AZ,850284255,,33.58159715,-111.981946,6029964713,Dec-49,,,,,,,,,,,,,,,,,,,,,,,
,1801146535,SURGCENTER AT PARADISE VALLEY LLC,8415 N PIMA RD,SCOTTSDALE,AZ,852584484,,33.50873436,-111.891869,4808003200,Dec-49,,,,,,,,,,,,,,,,,,,,,,,
,1720325160,SURGCENTER OF DEER VALLEY LLC,19820 N 7TH ST,PHOENIX,AZ,850241693,,33.4484367,-112.074141,6029047039,Dec-49,,,,,,,,,,,,,,,,,,,,,,,
,1932441938,"SURGICAL CENTERS OF ARIZONA, LLC",2629 N SCOTTSDALE RD,SCOTTSDALE,AZ,852571370,,33.47723018,-111.9260708,4804448364,Dec-49,,,,,,,,,,,,,,,,,,,,,,,
,1063735793,TOMAR PAIN CENTERS PLLC,1821 N TREKELL RD STE 3B,CASA GRANDE,AZ,851221705,,32.90251927,-111.740062,5208760528,Dec-49,,,,,,,,,,,,,,,,,,,,,,,
,1831530781,SURGCENTER CHANDLER LLC,3345 S VAL VISTA DR,GILBERT,AZ,852977331,,33.3377225,-111.75575,3104280469,Dec-49,,,,,,,,,,,,,,,,,,,,,,,
,1801220983,THE MINIMALLY INVASIVE SPINE SURGERY CENTER OF PARADISE VALLEY LLC,3135A EAST LINCOLN DRIVE,PHOENIX,AZ,850162301,,33.5307621,-112.015232,6234354670,Dec-49,,,,,,,,,,,,,,,,,,,,,,,
,1265745103,TOMAR PAIN CENTERS II PLLC,919 12TH PL STE 12B,PRESCOTT,AZ,863051604,,34.564736,-112.482955,9287712700,Dec-49,,,,,,,,,,,,,,,,,,,,,,,
,1497171714,YUMA SURGERY CENTER LLC,275 W 28TH ST,YUMA,AZ,853647308,,32.67657833,-114.6229166,9283295011,Dec-49,,,,,,,,,,,,,,,,,,,,,,,
,1366873515,BANNER ESTRELLA SURGERY CENTER,9301 W THOMAS RD,PHOENIX,AZ,850373327,,33.4784845,-112.2607979,6233885700,Dec-49,,,,,,,,,,,,,,,,,,,,,,,
,1851710735,SURGCENTER TUCSON LLC,3945 E FORT LOWELL RD,TUCSON,AZ,857121009,,32.26520136,-110.9075473,5202600450,Dec-49,,,,,,,,,,,,,,,,,,,,,,,
,1407275282,SURGCENTER CAMELBACK LLC,6245 N 24TH PKWY,PHOENIX,AZ,850162029,,33.528708,-112.027013,6026827005,Dec-49,,,,,,,,,,,,,,,,,,,,,,,
,1275569121,"SOUTHWESTERN EYE CENTER, LTD",560 N CAMINO MERCADO,CASA GRANDE,AZ,851225759,,32.87913185,-111.692511,5204269224,Dec-49,,,,Z3C0001042,,,,TRUE,,,,,5,,,,,,,,,,
,1336553833,CENTER FOR CARDIOVASCULAR RESEARCHA ND EDUCATION LLC,20565 N 19TH AVE,PHOENIX,AZ,850273563,,33.6725679,-112.0992512,8663073876,Dec-49,,,,,,,,,,,,,,,,,,,,,,,
,1740681733,SURGCENTER OF GREATER PHOENIX LLC,7231 E PRINCESS BLVD,SCOTTSDALE,AZ,852559673,,33.6479565,-111.9154207,4804234705,Dec-49,,,,,,,,,,,,,,,,,,,,,,,
,1376703314,VALLEY PAIN CENTER L.L.C.,4045 E BELL RD STE 147,PHOENIX,AZ,850322238,,33.6395674,-111.9946754,6027950207,Dec-49,,,,,,,,,,,,,,,,,,,,,,,
,1649662206,ADVANCED SURGERY CENTER OF ARIZONA,3303 E BASELINE RD,GILBERT,AZ,852342739,,33.378076,-111.760878,4806322020,Dec-49,,,,,,,,,,,,,,,,,,,,,,,
,1790172922,YUMA VALLEY AMBULATORY PAIN SERVICES INC,2270 S RIDGEVIEW DR,YUMA,AZ,853648880,,32.6890763,-114.6389653,9287834640,Dec-49,,,,,,,,,,,,,,,,,,,,,,,
,1790049617,SONORAN VEIN AND ENDOVASCULAR LLC,9200 W UNION HILLS DR,PEORIA,AZ,853828208,,33.65270661,-112.2574237,6023744101,Dec-49,,,,Z90295,,,,,,,,,,,,,,,,,,,
,1043690845,UNION HILLS PAIN PARTNERS LLC,4727 E UNION HILLS DR,PHOENIX,AZ,850503387,,33.65453315,-111.9808662,4802073737,Dec-49,,,,,,,,,,,,,,,,,,,,,,,
,1821471913,ARIZONA SURGICAL SPECIALISTS CENTER LLC,9250 W THOMAS RD,PHOENIX,AZ,850373382,,33.48041775,-112.2587311,6235168252,Dec-49,,,,,,,,,,,,,,,,,,,,,,,
,1386000495,CENTRAL ARIZONA SURGERY CENTER,1653 E MCMURRAY BLVD,CASA GRANDE,AZ,851225934,,32.88467393,-111.7157517,5208368644,Dec-49,,,,,,,,,,,,,,,,,,,,,,,
,1558305086,"SOUTHWESTERN EYE CENTER, LTD",4921 EAST BELL ROAD,SCOTTSDALE,AZ,852546002,,33.6401556,-111.8797371,6027879100,Dec-49,,,,Z71835,,,,TRUE,,,,,5,,,,,,,,,,
,1962869826,ENDOTECH LLC,8841 E BELL RD STE 101,SCOTTSDALE,AZ,852601535,,33.63998692,-111.8893745,4807194750,Dec-49,,,,,,,,,,,,,,,,,,,,,,,
,1659731669,"PHOENIX ASC, LP",1910 E THOMAS RD,PHOENIX,AZ,850167767,,33.48121755,-112.0406401,7138127586,Dec-49,,,,,,,,,,,,,,,,,,,,,,,
,1992168785,"SURGICAL INSTITUTE OF TUCSON, LLC",717 S ALVERNON WAY,TUCSON,AZ,857115351,,32.21201173,-110.9095125,5202041495,Dec-49,,,,,,,,,,,,,,,,,,,,,,,
,1629443478,SCOTTSDALE MCCORMICK RANCH SURGICENTER LLC,8129 N 87TH PL,SCOTTSDALE,AZ,852584399,,33.55457035,-111.8920286,6026897258,Dec-49,,,,,,,,,,,,,,,,,,,,,,,
,1477000602,DISCOVER SURGICAL CENTER LLC,135 S POWER RD STE 110,MESA,AZ,852065245,,33.4130542,-111.6827058,4807458577,Dec-49,,,,,,,,,,,,,,,,,,,,,,,
,1184078503,PIMA HEART ASC LLC,1238 W ORANGE GROVE RD,TUCSON,AZ,857042946,,32.2228765,-110.9748477,5208382300,Dec-49,,,,,,,,,,,,,,,,,,,,,,,
30140,1275077414,"SKI AMBULATORY SURGICAL CENTERS, LLC",1100 E UNIVERSITY DR,TEMPE,AZ,852818401,,33.422115,-111.921729,4806106152,Dec-49,,,,,,,,,,,,,,,,,,,,,,,
30141,1174067318,"SKI AMBULATORY SURGICAL CENTERS, LLC",325 S EUCLID AVE,TUCSON,AZ,857196653,,32.21763513,-110.9579732,5206237255,Dec-49,,,,,,,,,,,,,,,,,,,,,,,
30142,1023567260,"SKI AMBULATORY SURGICAL CENTERS, LLC",7362 W THUNDERBIRD RD,PEORIA,AZ,853815028,,33.6108576,-112.2176323,4806106152,Dec-49,,,,,,,,,,,,,,,,,,,,,,,
,1962943118,SPECTRA EYE INSTITUTE LLC,15401 N 29TH AVE,PHOENIX,AZ,850534001,,33.62593985,-112.1196766,6235832020,Dec-49,,,,,,,,TRUE,,,,,5,,,,,,,,,,
,1164871075,CENTRAL ARIZONA GI & LIVER INSTITUTE LLC,4001 E BASELINE RD,GILBERT,AZ,852342736,,33.3786241,-111.74666,4805658045,Dec-49,,,,,,,,,,,,,,,,,,,,,,,
,1215489182,"CORONADO SURGERY CENTER, LLC",150 S. CORONADO DR SUITE 100,SIERRA VISTA,AZ,856356352,,31.55393773,-110.2775202,5203358450,Dec-49,,,,,,,,,,,,,,,,,,,,,,,
,1396174454,"SURGERY CENTER OF SCOTTSDALE, LLC",18555 N 79TH AVE,GLENDALE,AZ,853088370,,33.649715,-112.2298469,6237762500,Dec-49,,,,Z163581,,,,,,,,,,,,,,,,,,,
,1558794081,"SURGERY CENTER OF SCOTTSDALE, LLC",2450 E GUADALUPE RD,GILBERT,AZ,852345116,,33.36483354,-111.7418666,4803988456,Dec-49,,,,Z164484,,,,,,,,,,,,,,,,,,,
,1083169700,FOUR PEAKS SURGERY CENTER LLC,9425 W BELL RD,SUN CITY,AZ,853511300,,33.63828129,-112.2633797,6233996880,Dec-49,,,,,,,,,,,,,,,,,,,,,,,
,1962938332,BANNER UNION HILLS SURGERY CENTER LLC,18301 N 79TH AVE STE E150,GLENDALE,AZ,853086045,,33.6477898,-112.229642,6232342294,Dec-49,,,,,,,,,,,,,,,,,,,,,,,
,1639605595,QUEEN CREEK SURGICAL CENTER LLC,36453 N GANTZEL RD,SAN TAN VALLEY,AZ,851407340,,33.1657696,-111.5450076,4806361225,Dec-49,,,,,,,,,,,,,,,,,,,,,,,
,1073030532,"AKDHC SURGERY CENTER, LLC",6622 N 91ST AVENUE,GLENDALE,AZ,853050001,,33.53258605,-112.255768,6025474668,Dec-49,,,,,,,,,,,,,,,,,,,,,,,
,1336687326,ARROWHEAD SURGERY CENTER LLC,1500 W RAY RD,CHANDLER,AZ,852240002,,33.320679,-111.867906,4809633881,Dec-49,,,G48777,Z103779,,,,,,,,,,,,,,,,,,,
,1932636123,TUCSON DIGESTIVE INSTITUTE LLC,7566 N LA CHOLLA BLVD STE B,TUCSON,AZ,857412307,,32.2282767,-111.0117406,5207424139,Dec-49,,,,,,,,,,,,,,,,,,,,,,,
,1154387710,WARNER PARK SURGERY CENTER LLC,3367 S. MERCY ROAD,GILBERT,AZ,852970400,,33.3527632,-111.7890373,4808992571,Dec-49,,,,Z29206,,,,,,,,,,,,,,,,,,,
,1104341353,BANNER PEORIA SURGERY CENTER LLC,13640 N PLAZA DEL RIO BLVD STE 135,PEORIA,AZ,853814846,,33.60731177,-112.2575929,6232344766,Dec-49,,,,,,,,,,,,,,,,,,,,,,,
,1780109934,BANNER MESA SURGERY CENTER LLC,1500 S DOBSON RD STE 101,MESA,AZ,852024722,,33.387716,-111.874758,4803066098,Dec-49,,,,,,,,,,,,,,,,,,,,,,,
,1770008922,BANNER PHOENIX SURGERY CENTER LLC,1040 E MCDOWELL RD,PHOENIX,AZ,850062612,,33.46695175,-112.0593628,6028638543,Dec-49,,,,,,,,,,,,,,,,,,,,,,,
,1760907919,BANNER SUN CITY WEST SURGERY CENTER LLC,14416 W MEEKER BLVD STE 103,SUN CITY WEST,AZ,853755284,,33.66027545,-112.3692607,6232343675,Dec-49,,,,,,,,,,,,,,,,,,,,,,,
,1881113785,BANNER ESTRELLA SURGERY CENTER LLC,9301 W THOMAS RD,PHOENIX,AZ,850373327,,33.4784845,-112.2607979,6232137407,Dec-49,,,,,,,,,,,,,,,,,,,,,,,
,1790104248,METRO SURGERY CENTER LLC,6790 W THUNDERBIRD RD,PEORIA,AZ,853815023,,33.61065745,-112.2048326,6239791717,Dec-49,,,,Z169045,,,,,,,,,,,,,,,,,,,
,1902834922,"SOUTHWESTERN EYE CENTER, LTD",1055 S STAPLEY DR,MESA,AZ,852045013,,33.3956812,-111.8050442,4808339100,Dec-49,,,,Z3C0001047,,,,TRUE,,,,,5,,,,,,,,,,
,1528000817,"SOUTHWESTERN EYE CENTER, LTD",10615 W THUNDERBIRD BLVD,SUN CITY,AZ,853513018,,33.6046193,-112.2879417,6239779600,Dec-49,,,,Z71834,,,,TRUE,,,,,5,,,,,,,,,,
,1417985102,"SOUTHWESTERN EYE CENTER, LTD",2149 W 24TH ST,YUMA,AZ,853646163,,32.6828258,-114.645257,9287264120,Dec-49,,,,Z3C0001050,,,,TRUE,,,,,5,,,,,,,,,,
,1225075435,"SOUTHWESTERN EYE CENTER, LTD",270 S CANDY LN,COTTONWOOD,AZ,863264164,,34.7353359,-112.031684,9286344202,Dec-49,,,,Z109083,,,,TRUE,,,,,5,,,,,,,,,,
,1700828423,"SOUTHWESTERN EYE CENTER, LTD",75 COLONIA DE SALUD,SIERRA VISTA,AZ,856352485,,31.55194037,-110.2320036,5204596860,Dec-49,,,,Z75468,,,,TRUE,,,,,5,,,,,,,,,,
,1740778554,"ORO VALLEY SURGICAL SUITES, LLC",8500 N ORACLE RD STE 150,ORO VALLEY,AZ,857046511,,32.360785,-110.971697,5204620220,Dec-49,,,,,,,,,,,,,,,,,,,,,,,
,1598270951,ARIZONA SURGICAL SPECIALISTS CENTER LLC,20045 N 19TH AVE,PHOENIX,AZ,850274270,,33.6685646,-112.0981782,6235168252,Dec-49,,,,,,,,,,,,,,,,,,,,,,,
,1891175188,PHOENIX SPINE GOODYEAR ASC LLC,140 N LITCHFIELD RD,GOODYEAR,AZ,853381226,,33.49230565,-112.3626177,6022562525,Dec-49,,,,Z75138,,,,,,,,,,,,,,,,,,,
,1285120352,"AKDHC SURGERY CENTER, LLC",3600 W TANGERINE RD SUITE 100,MARANA,AZ,856584789,,32.42383932,-111.0432672,5205472468,Dec-49,,,,,,,,,,,,,,,,,,,,,,,
,1629559208,"ORTHOARIZONA SURGERY CENTER GILBERT, LLC",1675 E. MELROSE STREET,GILBERT,AZ,852971002,,33.2813414,-111.7508915,4805198100,Dec-49,,,,,,,,TRUE,,,,,,,,5,,,,,,,
,1376998666,SWAN SURGERY CENTER,1505 N SWAN RD # 101,TUCSON,AZ,857124044,,32.24074531,-110.892731,5207953090,Dec-49,,,,,,,,,,,,,,,,,,,,,,,
,1699777540,PHYSICIANS SURGERY CENTER OF TEMPE LLC,1940 E SOUTHERN AVE,CHANDLER,AZ,852241674,,33.3061605,-111.84125,4808207101,Dec-49,,,,Z25563,,,,,,,,,,,,,,,,,,,
,1073089215,"SOUTH MOUNTAIN SURGERY CENTER, LLC",15810 S 45TH ST STE 150,PHOENIX,AZ,850487655,,33.303712,-111.987283,4807476240,Dec-49,,,,,,,,,,,,,,,,,,,,,,,
,1770076010,BARNET DULANEY PERKINS EYE CENTER II PLLC,2242 W 16TH ST,SAFFORD,AZ,855464081,,32.821151,-109.7093914,9284280068,Dec-49,,,,,,,,TRUE,,,,,5,,,,,,,,,,
,1821584632,PULSE CARDIOVASCULAR INTERVENTIONS LLC,7285 E EARLL DR BLDG C,SCOTTSDALE,AZ,852517230,,33.4942189,-111.9260184,4806000600,Dec-49,,,,,,,,,,,,,,,,,,,,,,,
,1801388061,VALLEY PAIN CENTERS OF ARIZONA LLC,4045 E BELL RD STE 147,PHOENIX,AZ,850322239,,33.6395674,-111.9946754,6027950207,Dec-49,,,,,,,,,,,,,,,,,,,,,,,
,1992238661,OPTIMUM SURGICAL CENTER LLC,20045 N 19TH AVE BLDG 12,PHOENIX,AZ,850274270,,33.4484367,-112.074141,4807666819,Dec-49,,,,,,,,,,,,,,,,,,,,,,,
,1205858875,KOKOPELLI EYE CARE PC,2820 N GLASSFORD HILL RD,PRESCOTT VALLEY,AZ,863141242,,34.58479209,-112.3425555,9287755606,Dec-49,,,,,,,,TRUE,,,,,5,,,,,,,,,,
,1780035428,SILVERLEAF SURGICAL CENTER LLC,1704 E BOSTON ST,GILBERT,AZ,85295,,33.3032172,-111.7534323,4807575548,Dec-49,,,,,,,,,,,,,,,,,,,,,,,
,1437615929,BANNER ENTICARE TEMPE SURGERY CENTER LLC,1940 E SOUTHERN AVE,TEMPE,AZ,852827518,,33.3932935,-111.9024438,4808207101,Dec-49,,,,,,,,,,,,,,,,,,,,,,,
,1851950281,YUMA ADVANCED SURGICAL SUITES LLC,1030 W 24TH STREET SUITE H,YUMA,AZ,853648384,,32.684036,-114.6309893,9282109165,Dec-49,,,,,,,,,,,,,,,,,,,,,,,
,1174185649,PISA ASC HOLDCO LLC,4741 E CAMP LOWELL DRIVE,TUCSON,AZ,857121256,,32.26538371,-110.8914743,5203186035,Dec-49,,,,,,,,,,,,,,,,,,,,,,,
,1891257473,"WESTGATE SURGERY CENTER, LLC",7330 N 99TH AVE STE 100,GLENDALE,AZ,853073016,,33.54097008,-112.2725551,6238885500,Dec-49,,,,,,,,,,,,,,,,,,,,,,,
,1194291401,"AFFILIATED PHYSICIANS & SURGEONS, LTD",20325 N 51ST AVE STE 102-104,GLENDALE,AZ,853085665,,33.6697678,-112.169007,6022741705,Dec-49,,,,,,,,,,,,,,,,,,,,,,,
,1891717195,CENTER FOR PAIN MANAGEMENT LLC,4745 E CAMP LOWELL DR,TUCSON,AZ,857121256,,32.26537342,-110.8914375,5208774254,Dec-49,,,,Z110759,,,,,,,,,,,,,,,,,,,
,1235656174,VINCERE SURGERY CENTER LLC,7469 E MONTE CRISTO AVE,SCOTTSDALE,AZ,852601618,,33.63109916,-111.9190161,6023317811,Dec-49,,,,,,,,,,,,,,,,,,,,,,,
,1932644606,INNOVATIVE SURGERY CENTER LLC,15547 N REEMS RD BLDG A,SURPRISE,AZ,853749583,,33.6292271,-112.3680189,6235359777,Dec-49,,,,,,,,,,,,,,,,,,,,,,,
,1689222317,FLAGSTAFF BONE & JOINT SURGICAL CENTER LLC,501 N SWITZER CANYON DR,FLAGSTAFF,AZ,860014845,,35.1976059,-111.6355958,9286378337,Dec-49,,,,,,,,,,,,,,,,,,,,,,,
,1851946875,"EAST VALLEY OUTPATIENT SURGERY, LLC",5620 E BROADWAY RD,MESA,AZ,852061438,,33.40844733,-111.7105093,4809816111,Dec-49,,,,,,,,,,,,,,,,,,,,,,,
,1922660109,"BANNER SURGERY CENTER - ALVERNON, LLC",750 N ALVERNON WAY,TUCSON,AZ,857111804,,32.23119984,-110.9095106,4802928541,Dec-49,,,,,,,,,,,,,,,,,,,,,,,
,1750920591,HAYDEN SURGICAL CENTER LLC,10611 N HAYDEN RD STE D102,SCOTTSDALE,AZ,852608530,,33.58344525,-111.9067416,6022376340,Dec-49,,,,,,,,,,,,,,,,,,,,,,,
,1386280436,OCOTILLO SURGERY CENTER LLC,3920 S ROME STREET,GILBERT,AZ,852977366,,33.2795239,-111.7509447,4805974778,Dec-49,,,,,,,,,,,,,,,,,,,,,,,
,1558923656,SHEA SURGICAL CENTER LLC,10611 N HAYDEN RD STE D102,SCOTTSDALE,AZ,852608530,,33.58344525,-111.9067416,6024413573,Dec-49,,,,,,,,,,,,,,,,,,,,,,,
,1386277069,SOUTHWEST ENDOSCOPY LLC,2223 E BASELINE RD STE B,GILBERT,AZ,852342336,,33.377773,-111.7842024,4802895266,Dec-49,,,,,,,,,,,,,,,,,,,,,,,
,1285085068,VALLEY PAIN CENTERS OF ARIZONA LLC,9242 W UNION HILLS DR STE 100,PEORIA,AZ,853828219,,33.65270713,-112.2583832,6237770333,Dec-49,,,,,,,,,,,,,,,,,,,,,,,
,1124664198,ADVANCED SURGICAL CARE EAST LLC,5925 W CHANDLER BLVD,CHANDLER,AZ,852263422,,33.30527372,-111.944149,8062500419,Dec-49,,,,,,,,,,,,,,,,,,,,,,,
,1881225639,BANNER SURGERY CENTER - THUNDERBIRD LLC,9301 W THOMAS RD,GLENDALE,AZ,853064622,,33.5386858,-112.1859941,6023548847,Dec-49,,,,,,,,,,,,,,,,,,,,,,,
,1013403161,"AKDHC SURGERY CENTER, LLC",2771 SILVER CREEK RD STE 100,BULLHEAD CITY,AZ,864427959,,35.1099511,-114.5550614,9287637722,Dec-49,,,,,,,,,,,,,,,,,,,,,,,
,1588126791,WYATT SURGERY CENTER LLC,2424 N WYATT DR STE 160,TUCSON,AZ,857126119,,32.25124965,-110.8819387,3343146079,Dec-49,,,,,,,,,,,,,,,,,,,,,,,
,1114549805,BSC 1 LLC,36453 N GANTZEL RD STE 102,QUEEN CREEK,AZ,851407368,,33.2483858,-111.634158,4805624617,Dec-49,,,,,,,,,,,,,,,,,,,,,,,
,1003332883,DESERT VISTA SURGICAL CENTER LLC,10117 N 92ND ST STE 103,SCOTTSDALE,AZ,852584555,,33.57963715,-111.8816454,4805768700,Dec-49,,,,,,,,,,,,,,,,,,,,,,,
,1497367262,SNKS ENTERPRISES LLC,77 S DOBSON RD STE 2,CHANDLER,AZ,852246290,,33.30239817,-111.8761739,4808140266,Dec-49,,,,,,,,,,,,,,,,,,,,,,,
,1780292110,BUCKEYE SOUTH LLC,23390 W YUMA RD STE 106,BUCKEYE,AZ,853263106,,33.43567408,-112.5536863,6232504800,Dec-49,,,,,,,,TRUE,,,,,5,,,,,,,,,,
,1073155834,REGENCY AMBULATORY SURGERY CENTER ONE LLC,14753 W MOUNTAIN VIEW BLVD,SURPRISE,AZ,853742704,,33.65507337,-112.3787376,6232439077,Dec-49,,,,,,,,,,,,,,,,,,,,,,,
,1588203723,"SOUTHWEST CARDIOVASCULAR INTERVENTIONAL CENTER, LLC",7529 E BROADWAY,MESA,AZ,852082057,,33.4151117,-111.8314792,4809454343,Dec-49,,,,,,,,,,,,,,,,,,,,,,,
,1386275147,"SURGERY CENTER OF MESA, LLC",2626 E UNIVERSITY DR,MESA,AZ,852138479,,33.42276627,-111.7745305,6023548847,Dec-49,,,,,,,,,,,,,,,,,,,,,,,
,1013539709,BSC BILTMORE LLC,2222 E HIGHLAND AVE STE 100,PHOENIX,AZ,850164874,,33.50621915,-112.0334521,6023588512,Dec-49,,,,,,,,,,,,,,,,,,,,,,,
,1275198673,UROLOGY ASC - PHOENIX LLC,1313 E OSBORN RD STE 170B,PHOENIX,AZ,850145678,,33.4868118,-112.0540516,6022644431,Dec-49,,,,,,,,,,,,,,,,,,,,,,,
,1457976383,VHC- I,8900 E RAINTREE DR STE 100,SCOTTSDALE,AZ,852607307,,33.618614,-111.888624,6029030360,Dec-49,,,,,,,,,,,,,,,,,,,,,,,
,1669021283,EL DORADO SURGERY CENTER LP,7140 E ROSEWOOD ST,TUCSON,AZ,857101346,,32.2327014,-110.840229,5208774254,Dec-49,,,,,,,,,,,,,,,,,,,,,,,
,1730783523,"ORTHOARIZONA SCOTTSDALE ASC, LLC",8405 N PIMA CENTER PARKWAY SUITE 102,SCOTTSDALE,AZ,852584638,,33.4942189,-111.9260184,4808125313,Dec-49,,,,,,,,TRUE,,,,,,,,5,,,,,,,
,1821361130,BARNET DULANEY PERKINS EYE CENTER II PLLC,1610 S WHITE MOUNTAIN RD,SHOW LOW,AZ,859017106,,34.23452575,-110.0271135,6029551000,Dec-49,,,,,,,,TRUE,,,,,5,,,,,,,,,,
,1861089666,BARNET DULANEY PERKINS EYE CENTER II PLLC,5632 E 5TH ST,TUCSON,AZ,857112444,,32.22883164,-110.872518,5207908888,Dec-49,,,,,,,,TRUE,,,,,5,,,,,,,,,,
,1023604931,ADVANCED SPINE AND PAIN SURGERY CENTERS LLC,3525 N CENTRAL AVE,PHOENIX,AZ,850122101,,33.4894898,-112.0734375,4805730210,Dec-49,,,,,,,,,,,,,,,,,,,,,,,
,1154911592,BCC WEST VALLEY LLC,14642 N DEL WEBB BLVD STE 100,SUN CITY,AZ,853512101,,33.61795,-112.293032,6023588512,Dec-49,,,,,,,,,,,,,,,,,,,,,,,
,1306435086,"PHOENIX SPINE AND JOINT GILBERT ASC, LLC",1760 E PECOS RD STE 128,GILBERT,AZ,852953206,,33.2963468,-111.7523424,6022562525,Dec-49,,,,,,,,,,,,,,,,,,,,,,,
,1891889945,DIGESTIVE CARE MEDICAL CENTER INC,1000A LAUREL STREET,SAN CARLOS,CA,940703955,,37.5019986,-122.2556983,6505968800,Dec-49,,,,ZZZ25478Z,,,,,,,,,,,,,,,,,,,
,1215002852,SANTA ROSA AMBULATORY SURGICAL CENTER MEDICAL GROUP INC,76 BROOKWOOD AVE STE B,SANTA ROSA,CA,954044312,,38.4430045,-122.7063982,7075234907,Dec-49,,,,,,,,,,,,,,,,,,,,,,,
50107,1740318153,MARIAN REGIONAL MEDICAL CENTER,1400 E CHURCH ST,SANTA MARIA,CA,934546966,83,34.95143825,-120.4132359,8057393100,Dec-49,1-Jan,FALSE,,S051620,9,227,,,,,,,,,,,,,,,,,
,1629111430,MONTEREY PARK OUTPATIENT SURGERY CENTER INC,201 W GARVEY AVE,MONTEREY PARK,CA,917547421,,34.062493,-118.1120255,6262803393,Dec-49,,,,,,,,,,,,,,,,,,,,,,,
,1316949415,NEWPORT BEACH SURGERY CENTER LP,361 HOSPITAL ROAD,NEWPORT BEACH,CA,926633521,,33.62620545,-117.9303417,9496310988,Dec-49,,,,S051243,,,,,,,,,,,,,,,,,,,
,1871538140,INLAND EYE SPECIALISTS A MEDICAL CORP,25395 HANCOCK AVE,MURRIETA,CA,925629054,,33.55885618,-117.1852389,9516965388,Dec-49,,,,ZZZ26813Z,,,,TRUE,,,,,5,,,,,,,,,,
,1114078342,RODEO DRIVE PLASTIC SURGERY INC,421 N RODEO DR,BEVERLY HILLS,CA,902104500,,34.06959618,-118.4034513,3105506300,Dec-49,,,,,,,,TRUE,,,,,,5,,,,,,,,,
05C0001368,1114922192,REDDING ENDOSCOPY CENTER,2179 COURT STREET,REDDING,CA,960012531,89,40.57702271,-122.392913,5302467000,Dec-49,15-01,TRUE,,ZZZ13409Z,9,,,,,,,,,,,,,,,,,,
,1538178256,MED-LASER SURGICAL CENTER LLC,2445 W WHITTIER BLVD,MONTEBELLO,CA,906403068,,34.01416222,-118.1283314,3237272550,Dec-49,,,,,,,,,,,,,,,,,,,,,,,
,1225184153,"JEAN CHENG, M.D. INC.",8990 GARFIELD ST STE 1,RIVERSIDE,CA,925033922,,33.9288064,-117.4396302,9517855421,Dec-49,,,,,,,,,,,,,,,,,,,,,,,
,1114921541,"SACRAMENTO SURGERY CENTER ASSOC., LP",1800 TRIBUTE RD,SACRAMENTO,CA,958154326,,38.59860595,-121.4465905,9169252700,Dec-49,,,,,,,,,,,,,,,,,,,,,,,
,1598809758,CALIFORNIA EYE CLINIC,3747 SUNSET LN,ANTIOCH,CA,945096101,,37.98429042,-121.8041231,9257542300,Dec-49,,,,,,,,TRUE,,,,,5,,,,,,,,,,
,1821019738,SANTA BARBARA ENDOSCOPY CENTER LLC,25 W MICHELTORENA ST,SANTA BARBARA,CA,93010,,34.42529695,-119.7089233,8059661600,Dec-49,,,,S051636,,,,,,,,,,,,,,,,,,,
,1073578126,SAN LUIS OBISPO SURGERY CENTER A CALIFORNIA LIMITED PARTNERSHIP,1304 ELLA ST,SAN LUIS OBISPO,CA,934014167,,35.27686108,-120.6499843,8055447874,Dec-49,,,,S551057,,,,,,,,,,,,,,,,,,,
,1699732131,ANTELOPE VALLEY SURGERY CENTER LP,44301 N LORIMER AVE,LANCASTER,CA,935343700,,34.6981064,-118.1366153,6619401112,Dec-49,,,,51233,,,,,,,,,,,,,,,,,,,
,1144287665,CHANNEL ISLANDS SURGICENTER LP,2300 WANKEL WAY,OXNARD,CA,930302665,,34.216739,-119.146275,8054851908,Dec-49,,,,S051229,,,,,,,,,,,,,,,,,,,
,1700057254,NORTH STATE SURGERY CENTERS LP,2175 ROSALINE AVE,REDDING,CA,960012549,,40.57175025,-122.3958828,5302257400,Dec-49,,,,ZZZ27456Z,,,,,,,,,,,,,,,,,,,
,1942261599,SDOSC LP,3939 RUFFIN RD STE 101,SAN DIEGO,CA,921231804,,32.81405975,-117.1208135,6192999530,Dec-49,,,,S051012A,,,,,,,,,,,,,,,,,,,
,1255472841,LYNN EYE SURGICENTER,2230 LYNN RD STE 106,THOUSAND OAKS,CA,91360,,34.20860391,-118.8850885,8053703137,Dec-49,,,,,,,,TRUE,,,,,5,,,,,,,,,,
,1376558965,SPECIALTY SURGICAL CENTER OF BEVERLY HILLS LP,8670 WILSHIRE BLVD STE 300,BEVERLY HILLS,CA,902112930,,34.0661138,-118.3806937,3102751646,Dec-49,,,,,,,,,,,,,,,,,,,,,,,
,1053416818,"DESERT REGIONAL MEDICAL CENTER, INC.",1180 N INDIAN CANYON DR,PALM SPRINGS,CA,922624879,,33.83891427,-116.5454839,7604164607,Dec-49,,,,ZZZ00674Z,,,,,,,,,,,,,,,,,,,
,1811955883,THOUSAND OAKS ENDOSCOPY CENTER LLC,227 W JANSS RD,THOUSAND OAKS,CA,913601848,,34.206339,-118.883518,8053710455,Dec-49,,,,51328,,,,,,,,,,,,,,,,,,,
,1932275054,SAN VICENTE SURGERY CENTER LLC,11645 WILSHIRE BLVD STE 987,LOS ANGELES,CA,900256814,,34.0494158,-118.46077,3102898600,Dec-49,,,A92809,G48327,,,,,,,,,,,,,,,,,,,
05C0001514,1013980317,LOS ANGELES-INGLEWOOD ENDOSCOPY ASC LP,8110 AIRPORT BLVD,LOS ANGELES,CA,900453119,,33.96461951,-118.3851962,3108464150,Dec-49,,,,S051514,,,,,,,,,,,,,,,,,,,
05C0001481,1780689802,PAIN DIAGNOSTIC AND TREATMENT CENTER,"2805 J STREET, SUITE 200",SACRAMENTO,CA,958164307,67,38.57386865,-121.4689855,9169999999,Dec-49,15-01,TRUE,,ZZZ19013Z,9,,,,,,,,,,,,,,,,,,
,1467451096,SOUTH PLACER SURGERY CENTER L P,8 MEDICAL PLAZA DRIVE,ROSEVILLE,CA,956613107,,38.76438035,-121.2450945,9166775070,Dec-49,,,,,,,,,,,,,,,,,,,,,,,
,1447285382,EYE SURGICAL CENTER LP,1809 VERDUGO BLVD,GLENDALE,CA,912081402,,34.20572112,-118.2151857,8187907874,Dec-49,,,S051094A,,,,,TRUE,,,,,5,,,,,,,,,,
,1538125422,BAKERSFIELD PHYSICIANS PLAZA SURGICAL CENTER LP,6000 PHYSICIANS BLVD,BAKERSFIELD,CA,933015840,,35.39635284,-119.0095159,6613224744,Dec-49,,,,P00197772,,,,,,,,,,,,,,,,,,,
,1952355851,ADVANCED DIAGNOSTIC AND SURGICAL CENTER INC.,1668 S. GARFIELD AVE. #100,ALHAMBRA,CA,918015474,,34.07533417,-118.1228715,6263089000,Dec-49,,,,05-C0001618,,,,,,,,,,,,,,,,,,,
,1528261195,ORCHARD CREEK SURGERY CENTER,525 SOUTH DR STE 115,MOUNTAIN VIEW,CA,940404211,,37.3668202,-122.0846571,6509695600,Dec-49,,,F80568,ZZZ27488Z,,,,,,,,,,,,,,,,,,,
,1629041157,WESTLAKE OPHTHALMOLOGY ASC LP,2900 TOWNSGATE RD,WESTLAKE VILLAGE,CA,913613001,,34.15183227,-118.8221013,8054966789,Dec-49,,,,S551006A,,,,,,,,,,,,,,,,,,,
,1326004110,GROSSMONT SURGERY CENTER LP,8881 FLETCHER PKWY,LA MESA,CA,919423128,,32.783918,-117.00708,6196980930,Dec-49,,,,S051090A,,,,,,,,,,,,,,,,,,,
,1841396850,"PHYSICIANS HEALTHCARE PARTNERS, INC",1101 LAS TABLAS RD STE K,TEMPLETON,CA,934655604,,35.55390345,-120.7185071,8054342009,Dec-49,,,,,,,,,,,,,,,,,,,,,,,
,1417051533,OAK TREE ASC LLC,751 CORDOVA ST,PASADENA,CA,911012617,,34.142634,-118.135037,6265772525,Dec-49,,,,,,,,,,,,,,,,,,,,,,,
,1457324857,NEWPORT COAST SURGERY CENTER LP,1441 AVOCADO AVE,NEWPORT BEACH,CA,926607702,,33.6135996,-117.8695288,9497183600,Dec-49,,,,,,,,,,,,,,,,,,,,,,,
,1386748440,COAST CENTER FOR ORTHOPEDIC AND ARTHROSCOPIC SURGERY LLC,3444 KEARNY VILLA RD STE 100,SAN DIEGO,CA,921231960,,32.805642,-117.150375,8582683566,Dec-49,,,,S051414B,,,,TRUE,,,,,,,,5,,,,,,,
,1053412189,MILAN S CHAKRABARTY MD,1003 E FLORIDA AVE,HEMET,CA,925434510,,33.7438625,-117.032031,9516522252,Dec-49,,,,,,,,,,,,,,,,,,,,,,,
,1497746747,PHYSICIANS SURGERY CENTER OF VICTORVILLE LLC,12567 HESPERIA ROAD,VICTORVILLE,CA,923955847,,34.47944766,-117.2908066,7602417754,Dec-49,,,,,,,,,,,,,,,,,,,,,,,
,1477502979,INLAND EAR NOSE AND THROAT A MEDICAL GROUP INC,1030 E FOOTHILL BLVD,UPLAND,CA,917864069,,34.1066263,-117.637676,9099815859,Dec-49,,,ZZZ 387 12 Z,,,,,,,,,,,,,,,,,,,,
,1710081443,VENTURA ENDOSCOPY CENTER LLC,5810 RALSTON STREET,VENTURA,CA,930036010,,34.26080333,-119.2126069,8056505500,Dec-49,,,,S051656,,,,,,,,,,,,,,,,,,,
,1235106782,VALLEY SURGERY CENTER AT MODESTO LLC,1300 MABLE AVE,MODESTO,CA,953551120,,37.696029,-120.975998,2095711633,Dec-49,,,,,,,,,,,,,,,,,,,,,,,
,1366456618,SKYWAY SURGERY CENTER. LLC,121 RALEY BLVD,CHICO,CA,959288347,,39.71595722,-121.7910608,5302302000,Dec-49,,,ZZZ28885Z,,,,,,,,,,,,,,,,,,,,
,1629009071,ENDOSCOPY CENTER OF SANTA MONICA LLC,12400 WILSHIRE BLVD,LOS ANGELES,CA,900251067,,34.0419752,-118.469719,3104425566,Dec-49,,,,,,,,,,,,,,,,,,,,,,,
,1083691331,"PAINCARE MEDICAL GROUP, INC.",15701 ROCKFIELD BLVD,IRVINE,CA,926182801,,33.63499905,-117.7202433,9494579900,Dec-49,,,,,,,,,,,,,,,,,,,,,,,
,1427166990,LOS ALTOS SURGERY CENTER,795 ALTOS OAKS DR,LOS ALTOS,CA,940245428,,37.35931204,-122.0925601,6509418888,Dec-49,,,,,,,,,,,,,,,,,,,,,,,
,1073693123,PCSC 15 INC,3805 TELEGRAPH RD,VENTURA,CA,930033422,,34.27380645,-119.2436726,8056449001,Dec-49,,,,S051668,,,,,,,,,,,,,,,,,,,
,1144499633,FOOTHILL SURGERY CENTER LP,255 E. SANTA CLARA ST. 110,ARCADIA,CA,910067233,,34.14241971,-118.0242513,8189561010,Dec-49,,,,S051666,,,,,,,,,,,,,,,,,,,
,1811921752,GLENDORA SURGERY CENTER,541 S PASADENA AVE,GLENDORA,CA,917416232,,34.13008745,-117.8603201,6266101850,Dec-49,,,,,,,,,,,,,,,,,,,,,,,
,1306851902,SPECIALTY SURGICAL CENTER OF IRVINE LP,15825 LAGUNA CANYON RD,IRVINE,CA,926182127,,33.6645603,-117.7640287,3106596333,Dec-49,,,,,,,,,,,,,,,,,,,,,,,
,1972668317,SCRIPPS MERCY AMBULATORY SURGERY CENTER L.P.,550 WASHINGTON ST,SAN DIEGO,CA,921032232,,32.750253,-117.160389,6196863434,Dec-49,,,,,,,,,,,,,,,,,,,,,,,
05C0001539,1881688554,SPINE AND PAIN TREATMENT MEDICAL CENTER,135 W CARMEN LN,SANTA MARIA,CA,934587729,83,34.9244301,-120.4611439,8059287361,Dec-49,15-01,TRUE,,S051539,9,,,,,,,,,,,,,,,,,,
,1275548158,DIGESTIVE DIAGNOSTIC CENTER INC,333 GELLERT BLVD,DALY CITY,CA,940152614,,37.66388684,-122.4691244,6507577900,Dec-49,,,,P00151992,,,,FALSE,,,,,,,,,,,,,,,
,1336215847,BRAND SURGICAL INSTITUTE INC,1141 N BRAND BLVD STE 200,GLENDALE,CA,912022577,,34.16236839,-118.2552388,8182439999,Dec-49,,,,,,,,,,,,,,,,,,,,,,,
,1396741807,EAST BAY ENDOSCOPY CENTER LP,5858 HORTON ST,EMERYVILLE,CA,946082007,,37.8407703,-122.2912564,5106544554,Dec-49,,,,,,,,,,,,,,,,,,,,,,,
,1124031406,SAN FRANCISCO ENDOSCOPY CENTER LLC,3468 CALIFORNIA STREET,SAN FRANCISCO,CA,941181837,,37.78677618,-122.4512139,4153450100,Dec-49,,,,,,,,TRUE,,,,,,,,,,,5,,,,
,1205364981,MERCED AMBULATORY SURGERY CENTER LLC,1390 E YOSEMITE AVE STE B,MERCED,CA,953408221,,37.33156685,-120.452213,2095803409,Dec-49,,,,,,,,,,,,,,,,,,,,,,,
,1699703991,PLAZA SURGICAL MEDICAL CENTER,850 S ATLANTIC BLVD,MONTEREY PARK,CA,917546705,,34.05128543,-118.1377165,6262892894,Dec-49,,,,S051680,,,,,,,,,,,,,,,,,,,
,1508818634,MONTEREY BAY ENDOSCOPY CENTER LLC,23 UPPER RAGSDALE DR,MONTEREY,CA,939407849,,36.57837141,-121.819317,8313753577,Dec-49,,,,,,,,,,,,,,,,,,,,,,,
,1437219276,MINEHART MEDICAL CORPORATION,16250 VENTURA BLVD STE 165,ENCINO,CA,914362273,,34.15674091,-118.4869379,8187843125,Dec-49,,,,,,,,,,,,,,,,,,,,,,,
,1578652152,IRVINE SURGICAL MEDICAL GROUP CORP,15825 LAGUNA CANYON RD,IRVINE,CA,926182126,,33.6645603,-117.7640287,9496796700,Dec-49,,,,S051683,,,,,,,,,,,,,,,,,,,
S051338A,1871749952,"COMPREHENSIVE OUTPATIENT SURGERY CENTER, LP",250 N ROBERTSON BLVD,BEVERLY HILLS,CA,902111767,,34.06945669,-118.3836255,3102739255,Dec-49,,,,,,,,,,,,,,,,,,,,,,,
,1588867030,"PACIFIC ENDO-SURGICAL CENTER, LP",3445 PACIFIC COAST HWY,TORRANCE,CA,905056659,,33.80215605,-118.345233,3103261666,Dec-49,,,,S051558A,,,,,,,,,,,,,,,,,,,
,1588709489,FOOTHILL GATEWAY SURGERY CENTER LLC,29300 PORTOLA PKWY STE A,LAKE FOREST,CA,926308718,,33.6609016,-117.6534397,9493056336,Dec-49,,,,,,,,,,,,,,,,,,,,,,,
,1326182411,"ENCINO DERMA SURGERY CENTER, INC.",5400 BALBOA BLVD,ENCINO,CA,913165210,,34.168907,-118.500991,3107947422,Dec-49,,,,S051717,,,,,,,,,,,,,,,,,,,
S051505,1538159397,MAGNOLIA SURGERY CENTER LIMITED PARTNERSHIP,14571 MAGNOLIA ST,WESTMINSTER,CA,926835575,,33.75172418,-117.972439,7149039039,Dec-49,,,,,,,,,,,,,,,,,,,,,,,
,1770541708,SUTTER ALHAMBRA SURGERY CENTER LP,1201 ALHAMBRA BLVD,SACRAMENTO,CA,958165243,,38.570438,-121.46611,9167338222,Dec-49,,,,490005305,,,,,,,,,,,,,,,,,,,
,1164484572,"FORT SUTTER SURGERY CENTER, A CALIFORNIA LIMITED PARTNERSHIP",2801 K ST,SACRAMENTO,CA,958165120,,38.572783,-121.469503,9167335017,Dec-49,,,,ZZZ152072,,,,,,,,,,,,,,,,,,,
,1821194754,COASTAL SURGICAL SPECIALISTS INC,921 OAK PARK BLVD,PISMO BEACH,CA,934493289,,35.1360324,-120.6050742,8054739850,Dec-49,,,,S051690,,,,,,,,,,,,,,,,,,,
,1467535518,"ROXSAN SURGERY CENTER, LLC",465 N ROXBURY DR,BEVERLY HILLS,CA,902104211,,34.0682061,-118.407364,3102773223,Dec-49,,,,BT447A,,,,,,,,,,,,,,,,,,,
,1912018706,VENTURA SURGERY CENTER INC,1752 S VICTORIA AVE,VENTURA,CA,930036194,,34.25839562,-119.2108518,8056548115,Dec-49,,,,S051688,,,,,,,,,,,,,,,,,,,
,1336231059,CENTINELA VALLEY ENDOSCOPY CENTER INC,575 E HARDY ST,INGLEWOOD,CA,903014037,,33.94917324,-118.3478918,3106806850,Dec-49,,,,P00309522,,,,,,,,,,,,,,,,,,,
,1972503233,LA JOLLA ORTHOPAEDIC SURGERY CENTER LP,4120 LA JOLLA VILLAGE DR,LA JOLLA,CA,920371481,,32.8401623,-117.2740777,8586570055,Dec-49,,,,S051519,,,,TRUE,,,,,,,,5,,,,,,,
,1821092206,"SUTTER FAIRFIELD SURGERY CENTER, LLC",2700 LOW CT,FAIRFIELD,CA,945349778,,38.235707,-122.084169,7074322700,Dec-49,,,7768573,ZZZ31705Z,,,,,,,,,,,,,,,,,,,
,1932277886,HUNTINGTON SURGERY CENTER INC,7801 CENTER AVE,HUNTINGTON BEACH,CA,926479110,,33.733973,-117.993561,7142302400,Dec-49,,,,,,,,,,,,,,,,,,,,,,,
,1891865077,"REGENCY SURGERY CENTER, LLC",16055 VENTURA BLVD,ENCINO,CA,914362635,,34.157949,-118.4951625,8187899988,Dec-49,,,,,,,,,,,,,,,,,,,,,,,
05C0001211,1053391169,"ENDOSCOPY CENTER OF THE S BAY,","23560 MADISON ST, SUITE 109",TORRANCE,CA,905054709,37,33.81130095,-118.3476239,2133256331,Dec-49,15-01,TRUE,,490005772,9,,,,,,,,,,,,,,,,,,
,1225058068,PROCEDURE CENTER OF IRVINE INC.,16100 SAND CANYON AVE,IRVINE,CA,926183722,,33.66292285,-117.7717426,9494171100,Dec-49,,,,,,,,,,,,,,,,,,,,,,,
,1578773495,BEVERLY HILLS CENTER FOR ARTHROSCOPICS SURGERY LLC,9763 W PICO BLVD,LOS ANGELES,CA,900354748,,34.05439929,-118.4011434,3107720098,Dec-49,,,,,,,,,,,,,,,,,,,,,,,
,1740520667,SPINE AND PAIN TREATMENT MEDICAL CENTER OF SANTA BARBARA INC,5771 N FRESNO ST,FRESNO,CA,937106091,,36.82228943,-119.7814231,8059287361,Dec-49,,,,,,,,,,,,,,,,,,,,,,,
05C0001503,1073588646,PARKWAY ENDOSCOPY CENTER,488 E VALLEY PARKWAY SUITE 110,ESCONDIDO,CA,920253366,73,33.125747,-117.0768564,7607356290,Dec-49,15-01,TRUE,,S051503A,9,,,,,,,,,,,,,,,,,,
,1841229705,ADVANCED MEDICAL SURGERY CENTER A MEDICAL CORPORATION,1117 LOS PALOS DR,SALINAS,CA,939013853,,36.65742433,-121.6453539,8314225240,Dec-49,,,,,,,,,,,,,,,,,,,,,,,
,1215019625,"FOUR SEASONS SURGERY CENTERS OF ONTARIO, LP",1211 W 6TH ST,ONTARIO,CA,917621103,,34.0845763,-117.6718496,9099336580,Dec-49,,,,ZZZ31739Z,,,,,,,,,,,,,,,,,,,
,1699863258,ROBERT E WAILES MD A PROFESSIONAL,3998 VISTA WAY STE C106,OCEANSIDE,CA,920564500,,33.184034,-117.296618,7609412600,Dec-49,,,,S051203,,,,,,,,,,,,,,,,,,,
,1679791404,SILVER SUMMIT MEDICAL CORPORATION,1408 COMMERCIAL WAY,BAKERSFIELD,CA,933090407,,35.36728066,-119.0603421,6613274455,Dec-49,,,,ZZZ00508Z,,,,,,,,,,,,,,,,,,,
,1356463913,MODESTO SURGERY CENTER INC,400 E ORANGEBURG AVE STE 1,MODESTO,CA,953505342,,37.663538,-120.988043,2095263000,Dec-49,,,A89123,,,,,,,,,,,,,,,,,,,,
05C0001055,1437156379,NORTH COUNTY OUTPATIENT SURGERY,1101 LAS TABLAS RD,MISSION HILLS,CA,913451239,79,34.687584,-120.4390175,8054341333,Dec-49,15-01,TRUE,,S551055B,9,,,,,,,,,,,,,,,,,,
,1811178981,AJEET R SINGHVI,397 N SAN JACINTO ST,HEMET,CA,925433118,,33.7528982,-116.9587657,9519290124,Dec-49,,,,ZZZ13587Z,,,,,,,,,,,,,,,,,,,
,1477572675,MOOTHEDATH A MENON,18056 WIKA RD,APPLE VALLEY,CA,923072194,,34.54065716,-117.2703624,7602421090,Dec-49,,,,,,,,,,,,,,,,,,,,,,,
,1336254770,EYE SURGERY CENTER OF THE DESERT,72301 COUNTRY CLUB DR,RANCHO MIRAGE,CA,922708007,,33.757806,-116.403892,7607768100,Dec-49,,,,ZZZ13466Z,,,,TRUE,,,,,5,,,,,,,,,,
,1609938570,LASER SURGERY CENTER OF NORTHERN CALIFORNIA LTD,2021 YGNACIO VALLEY RD,WALNUT CREEK,CA,945983352,,37.9206336,-122.0329662,9259449400,Dec-49,,,=========,,,,,,,,,,,,,,,,,,,,
,1245327493,"THE SURGERY CENTER OF ALTA BATES SUMMIT MEDICAL CENTER, LLC",3875 TELEGRAPH AVE,OAKLAND,CA,946092428,,37.8280299,-122.265121,5105472244,Dec-49,,,,,,,,,,,,,,,,,,,,,,,
,1023039682,BEVERLY HILLS ENDOSCOPY LLC,465 N ROXBURY DR,BEVERLY HILLS,CA,902112003,,34.0682061,-118.407364,3108888898,Dec-49,,,S051708,,,,,,,,,,,,,,,,,,,,
,1760423180,CENTRAL COAST ENDOSCOPY CENTER INC,243 GREEN VALLEY RD,FREEDOM,CA,950193133,,36.9388709,-121.7708749,8317630407,Dec-49,,,,ZZZ13977Z,,,,,,,,,,,,,,,,,,,
,1194720730,"UROLOGY ASSOCIATES OF CENTRAL CALIFORNIA, INC",7014 N WHITNEY AVE,FRESNO,CA,937200155,,36.8385387,-119.742168,5593212898,Dec-49,,,X37467,,,,,,,,,,,,,,,,,,,,
,1225245723,FRESNO ENDOSCOPY CENTER,7405 N FRESNO ST,FRESNO,CA,937202457,,36.84487219,-119.783873,5594388400,Dec-49,,,,,,,,,,,,,,,,,,,,,,,
,1821047499,"RIVERSIDE SURGERY CENTER, INC.",2801 PARK MARINA DR,REDDING,CA,960012822,,40.57398543,-122.3737439,5302442273,Dec-49,,,,,,,,,,,,,,,,,,,,,,,
,1154328243,SALINAS ENDOSCOPY CENTER LLC,1081 LOS PALOS DR,SALINAS,CA,939013916,,36.65835471,-121.6450241,8317711458,Dec-49,,,,ZZZ14035Z,,,,,,,,,,,,,,,,,,,
,1881792596,"JEDI VENTURES, LLC",3150 J ST,SACRAMENTO,CA,958164403,,38.57243925,-121.4642834,9164447052,Dec-49,,,,ZZZ15508Z,,,,,,,,,,,,,,,,,,,
,1932285871,WASHINGTON OUTPATIENT SURGERY CENTER,2299 MOWRY AVENUE,FREMONT,CA,945381621,,37.55690045,-121.9822016,5107915374,Dec-49,,,551027,,,,,,,,,,,,,,,,,,,,
,1376592014,ROSEVILLE ENDOSCOPY CENTER LLC,4 MEDICAL PLAZA DR,ROSEVILLE,CA,956612815,,38.76641825,-121.2455422,9167738780,Dec-49,,,,,,,,,,,,,,,,,,,,,,,
05C0001508,1619974219,AMBULATORY SURGERY CENTER OF STOCKTON,1800 N CALIFORNIA ST,STOCKTON,CA,952046019,,37.96897165,-121.2881894,2094676316,Dec-49,,,,ZZZ31755Z,,,,,,,,,,,,,,,,,,,
,1841363736,BAKERSFIELD PAIN MEDICAL CENTER INC.,6501 TRUXTUN AVE # 190,BAKERSFIELD,CA,933090633,,35.36224535,-119.0743128,6613258498,Dec-49,,,,ZZZ15038Z,,,,,,,,,,,,,,,,,,,
,1902964174,4TH STREET LASER & SURGERY CENTER INC,1720 4TH ST,SANTA ROSA,CA,954043602,,38.4485712,-122.6988614,7075468100,Dec-49,,,,,,,,,,,,,,,,,,,,,,,
,1447301593,481 ASC PROJECT LLC,481 30TH ST,OAKLAND,CA,946093209,,37.81925715,-122.266589,5108354521,Dec-49,,,,,,,,,,,,,,,,,,,,,,,
05C0001713,1477527398,UNITED SURGERY CENTER - MURRIETA,"25150 HANCOCK AVENUE, SUITE 208",MURRIETA,CA,925625989,65,33.56665644,-117.182342,9516988805,Dec-49,15-01,TRUE,,ZZZ31758Z,9,,,,,,,,,,,,,,,,,,
,1710945787,UPLAND OUTPATIENT SURGERY CENTER LP,1211 W 6TH ST,ONTARIO,CA,917621103,,34.0845763,-117.6718496,9099818755,Dec-49,,,,490004955,,,,,,,,,,,,,,,,,,,
05C0001438,1194718056,ENDOSCOPY CENTER OF MARIN,"1100 SOUTH ELISEO DRIVE, SUITE 3",GREENBRAE,CA,949042017,41,37.94372539,-122.5349653,4154640606,Dec-49,15-01,TRUE,,490004620,9,,,,,,,,,,,,,,,,,,
,1992752794,"SIERRA AMBULATORY SURGERY CENTER, A MEDICAL CORPORATION",2828 W MAIN ST,VISALIA,CA,932914331,,36.3296236,-119.3221405,5597347272,Dec-49,,,,,,,,,,,,,,,,,,,,,,,
,1033222989,EMPIRE SURGERY CENTER,4101 EMPIRE DRIVE,BAKERSFIELD,CA,933090681,,35.37319338,-119.0473907,6613251900,Dec-49,,,X52635,ZZZ18704Z,,,,,,,,,,,,,,,,,,,
,1699768713,ADVANCED PAIN MANAGEMENT,39700 BOB HOPE DR,RANCHO MIRAGE,CA,922707109,,33.76443266,-116.4080661,7607767520,Dec-49,,,,ZZZ18705Z,,,,,,,,,,,,,,,,,,,
,1366408270,KERLAN-JOBE SURGERY CENTER LLC,6801 PARK TER STE 300,LOS ANGELES,CA,900459212,,33.977812,-118.392833,3106657200,Dec-49,,,,,,,,,,,,,,,,,,,,,,,
,1295824118,"ABJ SURGERY CENTER, INC.",104 SAINT MATTHEWS AVE,SAN MATEO,CA,944012807,,37.496904,-122.3330573,6503488600,Dec-49,,,,ZZZ19064Z,,,,TRUE,10,,,,,,,,,,,,,,
,1144309063,SURGITEK OUTPATIENT CENTER INC,460 N GREENFIELD,HANFORD,CA,932303500,,36.3274502,-119.6456844,5595820238,Dec-49,,,,,,,,,,,,,,,,,,,,,,,
,1326191958,"T SURGERY CENTER, INC",3525 LOMA VISTA RD,VENTURA,CA,930033165,,34.27683629,-119.2481887,8056416434,Dec-49,,,,S051202A,,,,,,,,,,,,,,,,,,,
,1497740872,SHASTA EYE SURGEONS INC,950 BUTTE ST,REDDING,CA,960010827,,40.5860795,-122.3850608,5302232500,Dec-49,,,,,,,,TRUE,,,,,5,,,,,,,,,,
,1497791040,"CANYON PINOLE SURGERY CENTER, LP",1700 SAN PABLO AVE,PINOLE,CA,945642082,,38.004321,-122.297092,5107249500,Dec-49,,,,,,,,,,,,,,,,,,,,,,,
,1225123227,"COMPREHENSIVE PAIN MANAGEMENT CENTER, INC.",7152 N SHARON #104,FRESNO,CA,937203361,,36.7394421,-119.7848307,5594474898,Dec-49,,,,,,,,,,,,,,,,,,,,,,,
,1063692283,MARIAM AMIRI,11332 MOUNTAIN VIEW AVE,LOMA LINDA,CA,923543854,,34.04775311,-117.2437331,9097963707,Dec-49,,,,ZZZ15754Z,,,,,,,,,,,,,,,,,,,
,1760518609,NORTH POINT SURGERY CENTER INC,1332 W HERNDON AVE,FRESNO,CA,937117118,,36.83743752,-119.8136434,5594409640,Dec-49,,,,,,,,,,,,,,,,,,,,,,,
,1144370594,THIRD STREET SURGERY CENTER LLC,420 E 3RD ST STE 110,LOS ANGELES,CA,900131644,,34.04697458,-118.2419258,2136179194,Dec-49,,,,S051330B,,,,,,,,,,,,,,,,,,,
,1699711556,RICHARD B MEISTER MD,5959 GREENBACK LN,CITRUS HTS,CA,956214700,,38.680458,-121.322468,9167237400,Dec-49,,,,ZZZ18682Z,,,,,,,,,,,,,,,,,,,
,1033215223,WESTWOOD SURGERY CENTER,10884 SANTA MONICA BLVD STE 402,LOS ANGELES,CA,900257658,,34.04974905,-118.4376645,3104464647,Dec-49,,,,,,,,,,,,,,,,,,,,,,,
,1215930078,MARIN HEALTH VENTURES LLC,1 THORNDALE DR.,GREENBRAE,CA,949042305,,37.9485356,-122.5247031,4154614400,Dec-49,,,,ZZZ21405Z,,,,,,,,,,,,,,,,,,,
,1508869645,FRESNO CA ENDOSCOPY ASC LP,7055 N FRESNO ST,FRESNO,CA,937202957,,36.83837788,-119.7813181,5594409100,Dec-49,,,,,,,,,,,,,,,,,,,,,,,
,1891870986,AURORA SURGERY CENTER LP,73950 ALESSANDRO DR,PALM DESERT,CA,922603637,,33.72212934,-116.3749365,7605685381,Dec-49,,,,,,,,,,,,,,,,,,,,,,,
05C0001547,1619944824,WAVERLY SURGERY CENTER,400 FOREST AVENUE,PALO ALTO,CA,943012608,85,37.4456077,-122.1574689,6503240600,Dec-49,15-01,TRUE,,,9,,,TRUE,10,,,,,,,,,,,,,,
,1942245725,SIERRA PACIFIC SURGERY CENTER LLC,1630 E HERNDON AVE,FRESNO,CA,937203391,,36.83741018,-119.7574318,5594492888,Dec-49,,,,,,,,,,,,,,,,,,,,,,,
,1760440515,SIERRA ENDOSCOPY CENTER INC,300 SIERRA COLLEGE DR,GRASS VALLEY,CA,959455084,,39.2362505,-121.0540784,5302730527,Dec-49,,,,,,,,,,,,,,,,,,,,,,,
,1598815110,EXECUTIVE ENDOSCOPY INC,2100 FOREST AVE,SAN JOSE,CA,951281422,,37.32638435,-121.9368561,4082972314,Dec-49,,,,ZZZ23461Z,,,,,,,,,,,,,,,,,,,
,1043426950,"HOSPITAL DRIVE SURGERY CENTER, LLC",2500 HOSPITAL DR,MOUNTAIN VIEW,CA,940404116,,37.3687621,-122.0824054,6502541200,Dec-49,,,,ZZZ23373Z,,,,,,,,,,,,,,,,,,,
,1538664339,FOLSOM ENDOSCOPY CENTER LLC,1671 CREEKSIDE DR STE 100,FOLSOM,CA,956303890,,38.67143941,-121.145245,9169837475,Dec-49,,,,,,,,,,,,,,,,,,,,,,,
,1083751143,HEMET URO-ENDO SURGICENTER INC,162 N SANTA FE ST,HEMET,CA,925434451,,33.749085,-116.962885,9519292800,Dec-49,,,,,,,,,,,,,,,,,,,,,,,
,1558497263,ARTHUR N DONALDSON M D INC,940 SYLVA LN,SONORA,CA,953705969,,37.9840911,-120.3821381,2095320340,Dec-49,,,,ZZZ16244Z,,,,,,,,,,,,,,,,,,,
,1568532737,ANTELOPE VALLEY SURGICAL INSTITUTE LLC,1720 WEST AVENUE J,LANCASTER,CA,935342700,,34.68956396,-118.1616561,6619406060,Dec-49,,,,S051718,,,,,,,,,,,,,,,,,,,
,1639252760,"POST STREET SURGERY CENTER, LLC",2299 POST ST,SAN FRANCISCO,CA,941153443,,37.78420275,-122.43905,4159233770,Dec-49,,,,ZZZ24075Z,,,,TRUE,10,,,,,,,,,,,,,,
,1245216928,SCRIPPS HEALTH,3811 VALLEY CENTRE DR.,SAN DIEGO,CA,921303318,,32.93665455,-117.2321222,8587643000,Dec-49,,,,S051719,,,,,,,,,,,,,,,,,,,
,1922104710,OAKS SURGERY CENTER LP,40740 CALIFORNIA OAKS RD,MURRIETA,CA,925625727,,33.5700693,-117.2047994,9513042200,Dec-49,,,,,,,,,,,,,,,,,,,,,,,
,1184651457,MARIN COSMETIC SURGERY CENTER,165 ROWLAND WAY,NOVATO,CA,949455055,,38.09877145,-122.5606957,4158984361,Dec-49,,,,,,,,,,,,,,,,,,,,,,,
,1952302895,SAN LEANDRO SURGERY CENTER LTD A CALIFORNIA LIMITED PARTNERSHIP,15035 E 14TH STREET,SAN LEANDRO,CA,945781901,,37.7046012,-122.1284869,5102762800,Dec-49,,,,ZZZ25638Z,,,,,,,,,,,,,,,,,,,
,1528003332,"SPANISH HILLS SURGERY CENTER, LLC",261 MOBIL AVE,CAMARILLO,CA,930102521,,34.21898226,-119.0431075,8054848558,Dec-49,,,,,,,,,,,,,,,,,,,,,,,
05C0001318,1487629986,"ENDOSCOPY CENTER OF THE CENTRAL COAST, THE",77 CASA ST STE 106,TEMPLETON,CA,934659711,79,35.5496939,-120.706004,8055411021,Dec-49,15-01,TRUE,,490002620,9,,,,,,,,,,,,,,,,,,
,1346208642,BRAWLEY ENDOSCOPY & SURGERY MED CTR,1550 N IMPERIAL AVE,EL CENTRO,CA,922436304,,32.80973957,-115.5700671,7603523000,Dec-49,,,,,,,,,,,,,,,,,,,,,,,
,1508942996,PHYSICIANS SURGERY SERVICES LP,235 OCONNOR DR,SAN JOSE,CA,951281624,,37.3361663,-121.890591,4082790791,Dec-49,,,,ZZZ31793Z,,,,,,,,,,,,,,,,,,,
,1205911716,INTERVENTIONAL PAIN CENTER OF MERCED,1390 E YOSEMITE AVE STE C,MERCED,CA,953408221,,37.33156685,-120.452213,2097240316,Dec-49,,,,,,,,,,,,,,,,,,,,,,,
,1497733661,CHEVY CHASE AMBULATORY CENTER LP,801 S CHEVY CHASE DR,GLENDALE,CA,912054437,,34.1366667,-118.2405556,8182652275,Dec-49,,,,S051724,,,,,,,,,,,,,,,,,,,
,1992794580,VALLEY MEDICAL PLAZA AMBULATORY,1680 E HERNDON AVE,FRESNO,CA,937203384,,36.83755142,-119.7551787,5594324200,Dec-49,,,,ZZZ31806Z,,,,,,,,,,,,,,,,,,,
,1407869373,VALENCIA ASC LLC,24355 LYONS AVE,SANTA CLARITA,CA,913212378,,34.37841761,-118.5606081,6612556644,Dec-49,,,,,,,,,,,,,,,,,,,,,,,
,1336213099,SAN GABRIEL AMBULATORY SURGERY CENTER LP,207 S SANTA ANITA ST STE G16,SAN GABRIEL,CA,917761147,,34.10122692,-118.1065597,6263005300,Dec-49,,,,,,,,,,,,,,,,,,,,,,,
,1487608071,"SAN BERNARDINO EYE SURGERY CENTER, LLC",1900 E WASHINGTON ST,COLTON,CA,923244614,,34.04832437,-117.2944481,9098253425,Dec-49,,,,ZZZ98553Z,,,,TRUE,,,,,5,,,,,,,,,,
,1386647527,ORTHOPEDIC SURGERY CENTER OF OC LLC,22 CORPORATE PLAZA,NEWPORT BEACH,CA,926607999,,33.6093433,-117.8739316,9495150708,Dec-49,,,,,,,,TRUE,,,,,,,,5,,,,,,,
,1669540118,STEVENS KIM MD AND STEPHEN LIN MD MEDICAL GROUP INC,36 W YOKUTS AVE,STOCKTON,CA,952075713,,37.9978142,-121.3072026,2099521189,Dec-49,,,,ZZZ31851Z,,,,,,,,,,,,,,,,,,,
,1982674065,"HEMET HEALTHCARE SURGICENTER, INC.",301 N SAN JACINTO ST,HEMET,CA,925433119,,33.751372,-116.958756,9517651717,Dec-49,,,ZZZ38207Z,,,,,,,,,,,,,,,,,,,,
,1770652216,PENINSULA EYE SURGERY CENTER LLC,1128 W EL CAMINO REAL,MOUNTAIN VIEW,CA,940402518,,37.38765531,-122.0873524,6509643200,Dec-49,,,,,,,,TRUE,,,,,5,,,,,,,,,,
,1427275429,AESTHETICARE MEDICAL CORP.,30260 RANCHO VIEJO RD,SAN JUAN CAPISTRANO,CA,92675,,33.5232593,-117.6651057,9496611700,Dec-49,,,,,,,,,,,,,,,,,,,,,,,
,1396700753,HALCYON LASER & SURGERY CENTER INC,303 S HALCYON RD,ARROYO GRANDE,CA,934203817,,35.1146567,-120.5911544,8054898254,Dec-49,,,,,,,,,,,,,,,,,,,,,,,
,1821127275,ELITE SURGERY MEDICAL CENTER LLC,16311 VENTURA BLVD,ENCINO,CA,914364353,,34.1570937,-118.4883012,8185015353,Dec-49,,,,,,,,,,,,,,,,,,,,,,,
,1619989019,"CEDARS SURGERY CENTER, LP",2420 FLETCHER AVE,SANTA BARBARA,CA,931054814,,34.4221319,-119.7026673,8058981111,Dec-49,,,,,,,,,,,,,,,,,,,,,,,
,1932153509,NOVAMED SURGERY CENTER OF WHITTIER LLC,15141 WHITTIER BLVD,WHITTIER,CA,906032157,,33.94796377,-118.0043056,5629452832,Dec-49,,,,S051412A,,,,,,,,,,,,,,,,,,,
,1174538748,"SPECIALTY SURGICAL CENTER, LLC",9001 WILSHIRE BLVD,BEVERLY HILLS,CA,902111840,,34.06713,-118.387805,3102752339,Dec-49,,,,,,,,,,,,,,,,,,,,,,,
,1588679179,SPECIALTY SURGICAL CENTER OF ENCINO LP,16501 VENTURA BLVD,ENCINO,CA,914362064,,34.1583208,-118.4928367,3106596333,Dec-49,,,,,,,,,,,,,,,,,,,,,,,
,1043473390,LAKEWOOD EYE PHYSICIANS AND SURGEONS INC A MEDICAL GROUP,3300 E SOUTH ST,LAKEWOOD,CA,908054549,,33.8602139,-118.1510414,5625312020,Dec-49,,,,S551044,,,,TRUE,,,,,5,,,,,,,,,,
,1447352737,SAMARITAN ENDOSCOPY CENTER INC,15195 NATIONAL AVENUE,LOS GATOS,CA,950322631,,37.24761635,-121.9504476,4083560988,Dec-49,,,,,,,,,,,,,,,,,,,,,,,
05C0001534,1942278692,FOLSOM SURGERY CENTER,"1651 CREEKSIDE DRIVE, SUITE 100",FOLSOM,CA,956303833,67,38.6708526,-121.1465818,9166731990,Dec-49,15-01,TRUE,,ZZZ31874Z,9,,,,,,,,,,,,,,,,,,
,1093802225,ENDOSCOPY CENTER OF CHULA VISTA A CORPORATION,681 3RD AVE,CHULA VISTA,CA,919105703,,32.628668,-117.074328,6194252150,Dec-49,,,,,,,,,,,,,,,,,,,,,,,
,1679534614,"COURTYARD SURGERY PAVILION, INC",112 N AKERS ST,VISALIA,CA,932915121,,36.33029625,-119.3496093,5597334399,Dec-49,,,ZZZ31889Z,,,,,,,,,,,,,,,,,,,,
,1447213954,REAGAN STREET SURGERY CENTER LLC,10904 REAGAN ST,LOS ALAMITOS,CA,907202435,,33.80474465,-118.0691425,5625963140,Dec-49,,,Y52686,,,,,,,,,,,,,,,,,,,,
,1295891836,CARRILLO SURGERY CENTER,401 E CARRILLO ST,SANTA BARBARA,CA,931011460,,34.4260405,-119.697435,8055633307,Dec-49,,,,,,,,,,,,,,,,,,,,,,,
,1912916214,"LANDMARK IMAGING SURGICAL CENTER, LLC",11620 WILSHIRE BLVD,LOS ANGELES,CA,900256801,,34.05035222,-118.459613,3109147336,Dec-49,,,,S051568,,,,,,,,,,,,,,,,,,,
,1881642288,DOHENY ENDOSURGICAL CENTER INC,9090 WILSHIRE BLVD,BEVERLY HILLS,CA,902111849,,34.06696969,-118.3894419,3102462555,Dec-49,,,S051751,,,,,,,,,,,,,,,,,,,,
,1528012978,NORTHERN CALIFORNIA SURGERY CENTER LP,3850 GEER RD,TURLOCK,CA,953821146,,37.52798781,-120.8488588,2096689866,Dec-49,,,,ZZZ01494Z,,,,,,,,,,,,,,,,,,,
,1043254063,SIERRA AMBULATORY SURGERY CENTER,400 SIERRA COLLEGE DRIVE,GRASS VALLEY,CA,959455093,,39.23641848,-121.0568465,5302723428,Dec-49,,,,,,,,,,,,,,,,,,,,,,,
,1720023484,SPALDING TRIANGLE SURGERY CENTER LLC,120 S SPALDING DR STE 115,BEVERLY HILLS,CA,902121800,,34.0662901,-118.4086671,4245428485,Dec-49,,,,,,,,,,,,,,,,,,,,,,,
05C0001764,1679504690,PROVIDENCE SUMMIT SURGERY CENTER,"26357 MCBEAN PARKWAY, SUITE #100",SANTA CLARITA,CA,913554489,37,34.3939828,-118.5717124,6617998300,Dec-49,15-01,TRUE,,S051764,9,,,,,,,,,,,,,,,,,,
,1730124124,ENDOSCOPY CENTER OF SANTA MARIA INC,1315 S MILLER ST,SANTA MARIA,CA,934546910,,34.9531295,-120.4358577,8053492945,Dec-49,,,,,,,,,,,,,,,,,,,,,,,
,1508846122,HEALTH & WELLNESS SURGERY CENTER,1801 COLORADO AVE,TURLOCK,CA,953822711,,37.50932523,-120.8353709,2092163470,Dec-49,,,,,,,,,,,,,,,,,,,,,,,
,1073620415,"NORTH BAY EYE ASSOCIATES, A MEDICAL CORPORATION",380 TESCONI CT,SANTA ROSA,CA,954014653,,38.4476259,-122.7345749,7075443375,Dec-49,,,,,,,,TRUE,,,,,5,,,,,,,,,,
,1982709572,VALLARINE DENTAL CORPORATION,2828 FRESNO ST,FRESNO,CA,937211327,,36.74190657,-119.7836854,5592639648,Dec-49,,,,,,,,,,,,,,,,,,,,,,,
,1164534400,MISSION HILLS SURGICENTER LLC,25982 PALA,MISSION VIEJO,CA,926916729,,33.61968895,-117.6769906,9492973838,Dec-49,,,,,,,,,,,,,,,,,,,,,,,
,1083711568,NATRAJ SURGERY CENTER INC.,555 WEST PUTNAM AVE,PORTERVILLE,CA,932573286,,36.06946312,-119.0294621,5597880505,Dec-49,,,,,,,,,,,,,,,,,,,,,,,
,1952343204,BEACH DISTRICT SURGERY CENTER LP,514 N PROSPECT AVE,REDONDO BEACH,CA,902773036,,33.8535886,-118.3792622,3103762707,Dec-49,,,,,,,,,,,,,,,,,,,,,,,
,1649296807,SANSUM CLINIC,317 W PUEBLO ST,SANTA BARBARA,CA,931101110,,34.429596,-119.72216,8056811768,Dec-49,,,,,,,,,,,,,,,,,,,,,,,
,1821181488,"ADVANCED SURGERY MEDICAL CENTER, LLC",989 STORY RD,SAN JOSE,CA,951224603,,37.3324232,-121.8575219,4089988109,Dec-49,,,,,,,,,,,,,,,,,,,,,,,
,1255354486,SIMI SURGERY CENTER INC,1920 E. LOS ANGELES AVE.,SIMI VALLEY,CA,930653503,,34.27164076,-118.760988,8053068800,Dec-49,,,,,,,,,,,,,,,,,,,,,,,
,1497788277,PACIFIC EYE SURGERY CENTER,2829 W BURBANK BLVD,BURBANK,CA,915052300,,34.1816482,-118.3258554,8185670348,Dec-49,,,,S051139,,,,TRUE,,,,,5,,,,,,,,,,
,1417935206,DIGESTIVE DISEASE CENTER LP,24411 HEALTH CENTER DR,LAGUNA HILLS,CA,926533687,,33.6093964,-117.7096048,9495869386,Dec-49,,,S051134,,,,,,,,,,,,,,,,,,,,
,1336107580,"POMERADO OUTPATIENT SURGICAL CENTER, L.P.",17190 BERNARDO CENTER DR,SAN DIEGO,CA,921287031,,33.024815,-117.07743,8584851111,Dec-49,,,,05D0932843,,,,,,,,,,,,,,,,,,,
,1932214624,"LA PEER SURGERY CENTER, LLC",8920 WILSHIRE BLVD,BEVERLY HILLS,CA,902112001,,34.06695487,-118.3863783,3103609119,Dec-49,,,,,,,,,,,,,,,,,,,,,,,
,1144390725,STARPOINT SURGERY CENTER--STUDIO CITY,12660 RIVERSIDE DR,STUDIO CITY,CA,916073429,,34.1483989,-118.3961877,8186235310,Dec-49,,,,S051395B,,,,,,,,,,,,,,,,,,,
,1376595421,"OTAY LAKES SURGERY CENTER, LLC",955 LANE AVE,CHULA VISTA,CA,919144525,,32.65087982,-116.9614253,6197542260,Dec-49,,,,S051779,,,,,,,,,,,,,,,,,,,
,1053461624,MOUNTAIN VIEW SURGICAL CENTER INC.,16311 VENTURA BLVD,ENCINO,CA,914362124,,34.1570937,-118.4883012,8182059500,Dec-49,,,,,,,,,,,,,,,,,,,,,,,
,1588875967,PANKAJ K PATEL DMD & SHAILESH K PATEL DDS A PROFESSIONAL CORP,5712 PIRRONE RD,SALIDA,CA,953689313,,37.7151375,-121.0866788,2095439299,Dec-49,,,,,,,,,,,,,,,,,,,,,,,
,1457317398,"SANTA ROSA SURGERY CENTER, L.P.",34 MARK WEST SPRINGS RD SUITE 100,SANTA ROSA,CA,954031783,,38.49513675,-122.749852,7075413500,Dec-49,,,,51016,,,,,,,,,,,,,,,,,,,
,1801822739,"SYLVAN SURGERY CENTER, INC.",2336 SYLVAN AVE,MODESTO,CA,95355,,37.689047,-120.9555681,2093380393,Dec-49,,,,ZZZ05025Z,,,,,,,,,,,,,,,,,,,
,1982672283,ROSEVILLE SURGERY CENTER LP,1420 E ROSEVILLE PKWY,ROSEVILLE,CA,956613080,,38.7611869,-121.2494924,9166772488,Dec-49,,,,ZZZ05026Z,,,,,,,,,,,,,,,,,,,
,1033282173,TEMECULA VALLEY DAY SURGERY & PAIN THERAPY CENTER INC,25495 MEDICAL CENTER DR,MURRIETA,CA,925624903,,33.55788612,-117.1837708,9519200777,Dec-49,,,,,,,,,,,,,,,,,,,,,,,
,1417971821,NORTHRIDGE ADVANCED SURGERY CENTER,8331 RESEDA BLVD,NORTHRIDGE,CA,913244620,,34.22140076,-118.5361782,8189933428,Dec-49,,,,S051782,,,,,,,,,,,,,,,,,,,
,1447255435,MILE SQUARE SURGERY CENTER,10760 WARNER AVENUE,FOUNTAIN VALLEY,CA,927083845,,33.715976,-117.9410184,7142740388,Dec-49,,,,S051526,,,,,,,,,,,,,,,,,,,
,1801983556,TRESANTI SURGICAL CENTER LLC,5201 NORRIS CANYON ROAD,SAN RAMON,CA,945835410,,37.7754299,-121.9629301,9259730605,Dec-49,,,,ZZZ25414Z,,,,,,,,,,,,,,,,,,,
05C0001641,1053496240,EAST BAY ENDOSURGERY CENTER,"300 FRANK H OGAWA PLAZA, SUITE 135",OAKLAND,CA,946122070,1,37.8055183,-122.271469,5108931600,Dec-49,15-01,TRUE,,ZZZ05033Z,9,,,,,,,,,,,,,,,,,,
,1538240866,GOLDEN GATE ENDOSCOPY CENTER LLC,3370 GEARY BLVD,SAN FRANCISCO,CA,941183324,,37.7816619,-122.4552092,4153797500,Dec-49,,,,,,,,TRUE,,,,,,,,,,,5,,,,
,1497951164,"ZEITER EYE SURGICAL CENTER, INC.",1801 E MARCH LN,STOCKTON,CA,952106675,,38.00265361,-121.2886661,2093372020,Dec-49,,,,ZZZ05043Z,,,,TRUE,,,,,5,,,,,,,,,,
,1972694487,"436 BEVERLY HILLS, LLC",436 N BEDFORD DR,BEVERLY HILLS,CA,90210,,34.0685731,-118.405418,3102788200,Dec-49,,,,,,,,,,,,,,,,,,,,,,,
,1205976206,SUNSET AMBULATORY SURGICAL CENTER,2707 W SUNSET BLVD,LOS ANGELES,CA,900262101,,34.0979724,-118.3401387,2134837152,Dec-49,,,,,,,,,,,,,,,,,,,,,,,
05C0001785,1063453561,TEMPLETON SURGERY CENTER LLC,1310 LAS TABLAS RD STE 104,TEMPLETON,CA,934659746,79,35.555077,-120.7230915,3604021433,Dec-49,15-01,TRUE,,S051785,9,,,,,,,,,,,,,,,,,,
,1942383963,"SURGICAL INSTITUTE OF GARDEN GROVE, LLC.",12828 HARBOR BLVD STE 210,GARDEN GROVE,CA,928405834,,33.77619415,-117.9166892,7147413200,Dec-49,,,,,,,,,,,,,,,,,,,,,,,
,1578505079,TRUXTUN SURGERY CENTER INC,4260 TRUXTUN AVE,BAKERSFIELD,CA,933090682,,35.37268109,-119.0522095,6613273636,Dec-49,,,,ZZZ13292Z,,,,,,,,,,,,,,,,,,,
,1114091261,WILLOW SURGERY CENTER A MEDICAL CORPORATION,203 WILLOW ST,SAN FRANCISCO,CA,94109,,37.7829777,-122.4239782,4159312345,Dec-49,,,,,,,,TRUE,10,,,,,,,,,,,,,,
,1841259694,ENT FACIAL SURGERY CENTER LLC,1351 E SPRUCE AVE,FRESNO,CA,937203342,,36.84120312,-119.7576946,5594323303,Dec-49,,,,,,,,,,,,,,,,,,,,,,,
,1790799047,WATSONVILLE SURGEONS GROUP LLC,160 GREEN VALLEY RD,FREEDOM,CA,950193160,,36.9409366,-121.7695408,8317639700,Dec-49,,,,,,,,,,,,,,,,,,,,,,,
05C0001263,1407829773,LA JOLLA ENDOSCOPY CENTER,9850 GENESEE AVENUE #980,LA JOLLA,CA,920371234,73,32.8828285,-117.2264922,8584537523,Dec-49,15-01,TRUE,,490005303,9,,,,,,,,,,,,,,,,,,
,1083671358,CENTRAL COAST FACIAL SURGERY CENTER,295 POSADA LN,TEMPLETON,CA,934654055,,35.5531098,-120.7207723,8054345960,Dec-49,,,,S051562A,,,,,,,,,,,,,,,,,,,
,1699720573,"NARINDER S. GREWAL, M.D., A MEDICAL CORPORATION",23861 MCBEAN PKWY,VALENCIA,CA,913552003,,34.4176615,-118.5623614,6612885700,Dec-49,,,,,,,,,,,,,,,,,,,,,,,
,1629179205,"JOURNEY LITE OF THE CENTRAL COAST, LLC",333 S MOORPARK RD,THOUSAND OAKS,CA,913611008,,34.1733453,-118.8766307,8054973690,Dec-49,,,,,,,,,,,,,,,,,,,,,,,
,1205853041,"EUCLID ENDOSCOPY CENTER, LP",286 EUCLID AVE STE 109,SAN DIEGO,CA,921143611,,32.707278,-117.085804,6192663332,Dec-49,,,,,,,,,,,,,,,,,,,,,,,
,1881662856,"SILICON VALLEY SURGERY CENTER, LP",14601 S BASCOM AVE,CAMPBELL,CA,950087317,,37.2601058,-121.9466836,4084020663,Dec-49,,,,,,,,,,,,,,,,,,,,,,,
,1295769131,"90210 SURGERY MEDICAL CENTER, LLC",450 N ROXBURY DR,BEVERLY HILLS,CA,902104225,,34.068403,-118.4067524,3106512280,Dec-49,,,,S051031C,,,,,,,,,,,,,,,,,,,
,1093885675,RANCHO MIRAGE PAIN CENTER INC,39300 BOB HOPE DR,RANCHO MIRAGE,CA,922703203,,33.817401,-116.410436,7607733075,Dec-49,,,A51737,,,,,,,,,,,,,,,,,,,,
,1235195033,NORTH COAST SURGERY CENTER LTD,3903 WARING RD,OCEANSIDE,CA,920564405,,33.187564,-117.292372,7609400997,Dec-49,,,,551023,,,,,,,,,,,,,,,,,,,
,1598791923,ORANGE COAST SURGICAL CENTER INC,240 NEWPORT CENTER DR,NEWPORT BEACH,CA,926607538,,33.6112358,-117.8743172,9496442450,Dec-49,,,,S051793,,,,,,,,,,,,,,,,,,,
,1699855213,SANTA MONICA SURGICAL PARTNERS LLC,2121 WILSHIRE BLVD,SANTA MONICA,CA,904035742,,34.03272,-118.481621,3105767267,Dec-49,,,,,,,,,,,,,,,,,,,,,,,
,1740491422,PV PENINSULA PLASTIC SURGERY CENTER,3400 LOMITA BLVD,TORRANCE,CA,90505,,33.812974,-118.34468,3103263636,Dec-49,,,,,,,,TRUE,,,,,,5,,,,,,,,,
,1215126438,THE ARCADIA CA ENDOSCOPY ASC LP,488 E SANTA CLARA ST,ARCADIA,CA,910067230,,34.14246322,-118.0208191,6263599555,Dec-49,,,,S051634A,,,,,,,,,,,,,,,,,,,
,1952368482,SAN DIEGO ENDOSCOPY CENTER,4033 3RD AVE,SAN DIEGO,CA,921032136,,32.75059635,-117.1626695,6194972888,Dec-49,,,,S051247,,,,,,,,,,,,,,,,,,,
,1225179898,EYE SURGERY CENTER OF BEVERLY HILLS,240 S LA CIENEGA BLVD STE 260,BEVERLY HILLS,CA,902113314,,34.062753,-118.3761385,3102896595,Dec-49,,,,S051802,,,,TRUE,,,,,5,,,,,,,,,,
,1780727636,"UNION SURGERY CENTER, INC",3737 SAN DIMAS ST,BAKERSFIELD,CA,933113653,,35.39365494,-119.0082963,6613231200,Dec-49,,,,,,,,,,,,,,,,,,,,,,,
,1194774737,OCEAN SURGEY CENTER LLC,2802 PACIFIC COAST HWY,TORRANCE,CA,905056702,,33.79397905,-118.3358806,3103251644,Dec-49,,,,,,,,,,,,,,,,,,,,,,,
,1750582797,"BAY AREA LASER SURGERY CENTER, A MEDICAL CORPORATION",1599 TARA HILLS DR,PINOLE,CA,945642519,,37.995229,-122.30255,5107247629,Dec-49,,,,,,,,,,,,,,,,,,,,,,,
,1730112178,SAN JOAQUIN LASER AND SURGERY CENTER INC,1805 N CALIFORNIA ST STE 101A,STOCKTON,CA,952046032,,37.9711513,-121.2896885,2099485515,Dec-49,,,,ZZZ17148Z,,,,,,,,,,,,,,,,,,,
,1104909068,WESTSIDE MEDICAL CENTER INC,1700 WESTWOOD BLVD FL 1,LOS ANGELES,CA,900245608,,34.0536909,-118.242766,3102346600,Dec-49,,,,S051811,,,,,,,,,,,,,,,,,,,
,1447390448,DOWNTOWN LA AMBULATORY SURGICAL CENTER,420 E 3RD STREET SUITE #604,LOS ANGELES,CA,900131645,,34.04697458,-118.2419258,2136263330,Dec-49,,,,S051809,,,,,,,,,,,,,,,,,,,
,1831109875,M S SURGERY CENTER LLC,3510 MARTIN LUTHER KING JR BLVD,LYNWOOD,CA,902622010,,33.936181,-118.2077027,3106389391,Dec-49,,,,S551041A,,,,,,,,,,,,,,,,,,,
,1336294859,LOS ROBLES SURGICENTER LLC,2190 LYNN RD,THOUSAND OAKS,CA,913608019,,34.2076245,-118.8837848,8054973737,Dec-49,,,,S051215,,,,,,,,,,,,,,,,,,,
,1184798837,"SHADELANDS ADVANCED ENDOSCOPY INSTITUTE, INC.",498 N WIGET LN,WALNUT CREEK,CA,945982408,,37.928546,-122.030529,9259333600,Dec-49,,,,,,,,,,,,,,,,,,,,,,,
,1043275183,FOREST AMBULATORY SURGICAL ASSOCIATES LLC,2110 FOREST AVE FL 2,SAN JOSE,CA,951281469,,37.3361663,-121.890591,4082973432,Dec-49,,,,ZZZ 96873 Z,,,,,,,,,,,,,,,,,,,
,1104850312,MONTEREY PENINSULA SURGERY CENTER LLC,966 CASS ST STE 150,SALINAS,CA,939014452,,36.6744117,-121.6550372,8313722169,Dec-49,,,,,,,,,,,,,,,,,,,,,,,
,1538293360,"PENINSULA PROCEDURE CENTER, LP",369 MAIN STREET,REDWOOD CITY,CA,940631759,,37.4907326,-122.226677,6503666400,Dec-49,,,,,,,,TRUE,10,,,,,,,,,,,,,,
,1407932619,PACIFIC EYE INSTITUTE A MEDICAL GROUP INC,555 N 13TH AVE,UPLAND,CA,917864904,,34.1003766,-117.6338467,9099828846,Dec-49,,,,ZZZ27062Z,,,,TRUE,,,,,5,,,,,,,,,,
,1952363368,GOLDEN TRIANGLE SURGICENTER LP,25405 HANCOCK AVE,MURRIETA,CA,925625978,,33.55877808,-117.1852311,9516984670,Dec-49,,,,51210,,,,,,,,,,,,,,,,,,,
,1942265939,INLAND SURGERY CENTER LP,1620 LAUREL AVE,REDLANDS,CA,923734838,,34.037524,-117.203488,9097934701,Dec-49,,,,ZZZ96815Z,,,,,,,,,,,,,,,,,,,
,1194802868,"VISION CARE CENTER, A MEDICAL GROUP, INC",7075 N SHARON AVE,FRESNO,CA,937203329,,36.83876968,-119.7591473,5594862000,Dec-49,,,,ZZZ51516Z,,,,,,,,,,,,,,,,,,,
,1558328096,NEWPORT BEACH ENDOSCOPY CENTER LLC,1525 SUPERIOR AVE,NEWPORT BEACH,CA,926633639,,33.6298912,-117.930332,9496466999,Dec-49,,,,51309,,,,,,,,,,,,,,,,,,,
,1013068642,"RENAISSANCE SURGERY CENTER, LLC",2365 E FIR AVE,FRESNO,CA,93720,,36.83943846,-119.7393442,5597979100,Dec-49,,,,ZZZ06569Z,,,,,,,,,,,,,,,,,,,
,1558511881,ADVANCED EYE MEDICAL GROUP A PROFESSIONAL CORPORATION,26701 CROWN VALLEY PKWY,MISSION VIEJO,CA,926916356,,33.5642149,-117.6645484,9495821090,Dec-49,,,,S051120,,,,TRUE,,,,,5,,,,,,,,,,
,1306881164,AUBURN SURGICAL CENTER LP,3123 PROFESSIONAL DR,AUBURN,CA,956032400,,38.8945939,-121.0739897,5308888899,Dec-49,,,,ZZZ06581Z,,,,,,,,,,,,,,,,,,,
,1114103587,"CONTOUR AESTHETIC SURGERY CENTER, INC",843 E FOOTHILL BLVD,UPLAND,CA,917864034,,34.10712869,-117.6399444,9099821002,Dec-49,,,,05C0001814,,,,,,,,,,,,,,,,,,,
,1447472659,BROCKTON ENDOSCOPY SURGERY CENTER LP,6958 BROCKTON AVE,RIVERSIDE,CA,92506,,33.947199,-117.396661,9517884400,Dec-49,,,,,,,,,,,,,,,,,,,,,,,
05C0001820,1538280284,"RIVER SURGICAL INSTITUTE, INC","609 E ORANGEBURG AVENUE, BUILDING B",MODESTO,CA,953505512,99,37.66369067,-120.985722,2095276700,Dec-49,15-01,TRUE,A-27474,,9,,,,,,,,,,,,,,,,,,
,1942335468,"INNOVATIVE PAIN TREATMENT SURGERY CENTER OF TEMECULA, INC.",27412 ENTERPRISE CIR W,TEMECULA,CA,925904801,,33.51610363,-117.1670363,9516946367,Dec-49,,,,,,,,,,,,,,,,,,,,,,,
,1548226442,ARTHROSCOPIC & LASER SURGERY CENTER OF SAN DIEGO LP,5471 KEARNY VILLA RD,SAN DIEGO,CA,921231141,,32.83316397,-117.138835,8585604567,Dec-49,,,,P00044491,,,,,,,,,,,,,,,,,,,
,1083670970,GLENWOOD SURGICAL CENTER LP,8945 MAGNOLIA AVE,RIVERSIDE,CA,925034436,,33.92634977,-117.4361816,9516887270,Dec-49,,,,51082,,,,,,,,,,,,,,,,,,,
,1053492736,PLASTIC SURGERY ASSOCIATES OF ORANGE COUNTY,1310 W STEWART DR,ORANGE,CA,928683857,,33.6068858,-117.9177965,7149974300,Dec-49,,,,S551076,,,,TRUE,,,,,,5,,,,,,,,,
,1639375108,HEALING ARTS SURGERY CENTER INC,2700 F. ST,BAKERSFIELD,CA,933011848,,35.383998,-119.023376,6613224325,Dec-49,,,,,,,,,,,,,,,,,,,,,,,
,1245372531,"NEWPORT BAY SURGERY CENTER, LLC",3333 W COAST HWY,NEWPORT BEACH,CA,926634087,,33.5667986,-117.8299759,9496456272,Dec-49,,,,,,,,,,,,,,,,,,,,,,,
,1700842507,ARCADIA OUTPATIENT SURGERY CENTER LP,614 W DUARTE RD,ARCADIA,CA,910077601,,34.1265107,-118.0518999,6264454714,Dec-49,,,,S051005A,,,,,,,,,,,,,,,,,,,
,1700816733,ADVANCED ENDOSCOPY CENTER INC,386 W OLIVE AVE,MERCED,CA,953483137,,37.31917459,-120.4751617,2097249900,Dec-49,,,,,,,,,,,,,,,,,,,,,,,
,1205009040,"NORTH COUNTY ASSOCIATES, LLC",1105 LAS TABLAS RD,TEMPLETON,CA,934659731,,35.5537858,-120.7189939,8054345428,Dec-49,,,,,,,,,,,,,,,,,,,,,,,
,1083694319,"KINGS EYE CENTER MEDICAL GROUP, INC.",1395 W LACEY BLVD,HANFORD,CA,932305904,,36.32791997,-119.6667644,5595853937,Dec-49,,,,,,,,TRUE,,,,,5,,,,,,,,,,
,1437274495,EYE SURGICAL CENTER OF SAN FRANCISCO LLC,1160 POST ST,SAN FRANCISCO,CA,941095505,,37.78682174,-122.420631,4154401100,Dec-49,,,,,,,,TRUE,,,,,6,,,,,,,,,,
,1710177795,"ASPEN SURGERY CENTER, LLC",133 LA CASA VIA STE 150,WALNUT CREEK,CA,945983005,,37.91268207,-122.0427073,9252108400,Dec-49,,,,,,,,,,,,,,,,,,,,,,,
,1801859970,"LOS GATOS SURGICAL CENTER, A CALIFORNIA LIMITED PARTNERSHIP",15195 NATIONAL AVE STE 100,LOS GATOS,CA,950322631,,37.24761635,-121.9504476,4083560454,Dec-49,,,,51048,,,,,,,,,,,,,,,,,,,
,1073713004,ADVANCED EYE SURGERY CENTER,627 W. EAST AVE,CHICO,CA,959267201,,39.75067405,-121.871334,5303421800,Dec-49,,,,,,,,TRUE,,,,,5,,,,,,,,,,
,1962695122,NORTH ORANGE COUNTY SURGERY CENTER,1741 W ROMNEYA DR,ANAHEIM,CA,928011805,,33.8511531,-117.9434102,7144089481,Dec-49,,,,,,,,,,,,,,,,,,,,,,,
05C0001131,1225001423,GLENDALE OPHTHALMOLOGY ASC LP,607 N CENTRAL AVE,GLENDALE,CA,912031849,,34.1545783,-118.2584788,8189561010,Dec-49,,,,490005402,,,,,,,,,,,,,,,,,,,
05C0001296,1366422479,VALLEY ENDOSCOPY CENTER,397 NORTH SAN JACINTO STREET,TARZANA,CA,913562883,65,34.1689295,-118.536567,9519290124,Dec-49,15-01,TRUE,,S051296,9,,,,,,,,,,,,,,,,,,
,1003015843,"NORTHBAY PHYSICIANS SURGERY CENTER, L.L.C.",1006 NUT TREE ROAD,VACAVILLE,CA,956874100,,38.35656806,-121.9529004,7074462800,Dec-49,,,,,,,,,,,,,,,,,,,,,,,
,1255429700,"OASIS SURGERY CENTER, LP",815 AUTO CENTER DR,PALMDALE,CA,935514486,,34.5908476,-118.1414653,6612066262,Dec-49,,,,,,,,,,,,,,,,,,,,,,,
,1225579295,SANTA BARBARA OUTPATIENT SURGERY CENTERS LLC,3045 DE LA VINA ST,SANTA BARBARA,CA,931053351,,34.439533,-119.729625,8055693226,Dec-49,,,,,,,,,,,,,,,,,,,,,,,
,1356480099,MEMORIAL CARE SURGICAL CENTER AT SADDLEBACK LLC,24411 HEALTH CENTER DR,LAGUNA NIGUEL,CA,926771267,,33.5225261,-117.7075526,9494585600,Dec-49,,,,05C0001846,,,,,,,,,,,,,,,,,,,
05C0001842,1821112145,SCRIPPS ENCINITAS SURGERY CENTER,"320 SANTA FE DRIVE, SUITE LL2",ENCINITAS,CA,920245140,73,33.038824,-117.285627,7606323920,Dec-49,15-01,TRUE,,05C1842,9,,,,,,,,,,,,,,,,,,
,1629135843,NAEEM M AKHTAR,451 E ALMOND AVE,MADERA,CA,93537,,36.94562642,-120.0532119,5596734000,Dec-49,,,,ZZZ39989Z,,,,,,,,,,,,,,,,,,,
,1609056290,UCSD AMBULATORY SURGERY CENTER LLC,8929 UNIVERSITY CENTER LN,SAN DIEGO,CA,921221007,,32.86992,-117.226445,8585540220,Dec-49,,,,,,,,,,,,,,,,,,,,,,,
,1104006006,PACIFIC ENDOSCOPY AND SURGERY CENTER LLC,17815 NEWHOPE ST,FOUNTAIN VALLEY,CA,927085427,,33.70545029,-117.9329845,7144328881,Dec-49,,,,,,,,,,,,,,,,,,,,,,,
,1982880829,"THE SURGERY CENTER OF NEWPORT COAST, LLC",17 CORPORATE PLAZA DR,NEWPORT BEACH,CA,926607984,,33.608945,-117.876966,9497066300,Dec-49,,,,05C1653,,,,,,,,,,,,,,,,,,,
,1346287414,"OPTIMA OPHTHALMIC MEDICAL ASSOCIATES, INC",1237 B STREET,HAYWARD,CA,945412915,,37.67546965,-122.0784512,5108865497,Dec-49,,,,ZZZ91610Z,,,,,,,,,,,,,,,,,,,
,1033177373,SURGICARE OF LA VETA LTD,681 S PARKER ST,ORANGE,CA,928684761,,33.77830147,-117.8595052,7147440900,Dec-49,,,,S051179,,,,,,,,,,,,,,,,,,,
,1194913103,LASERVUE EYE CENTER MEDICAL CORPORATION,3540 MENDOCINO AVE STE 200,SANTA ROSA,CA,954032276,,38.4739673,-122.7253935,7075226200,Dec-49,,,,,,,,TRUE,,,,,5,,,,,,,,,,
,1104087089,CONGRESS MEDICAL SURGERY CENTER LLC,800 S RAYMOND AVE,PASADENA,CA,991053024,,34.13199646,-118.1486583,6267958051,Dec-49,,,,P00817840,,,,,,,,,,,,,,,,,,,
,1245393602,MARYAM RAHBAR MD INC,17822 BEACH BLVD STE 101,HUNTINGTON BEACH,CA,926477101,,33.7033702,-117.9889696,7148473666,Dec-49,,,PTAN/ F1872,,,,,,,,,,,,,,,,,,,,
,1952432122,SARBJIT SINGH HUNDAL,39263 MISSION BLVD,FREMONT,CA,945393037,,37.56279508,-121.9588476,5107964500,Dec-49,,,A27598,ZZZ27388Z,,,,,,,,,,,,,,,,,,,
,1972692754,PACIFIC COAST SURGERY CENTER 7 LLC,1519 GARCES HWY,DELANO,CA,932153694,,35.76133411,-119.2368753,6617209600,Dec-49,,,,BA614,,,,,,,,,,,,,,,,,,,
05C0001673,1821285073,GLENDORA DIGESTIVE DISEASE INSTITUTE,1794 S BARRANCA AVENUE,GLENDORA,CA,917405421,37,34.1208696,-117.8813852,6268584600,Dec-49,15-01,TRUE,,05C1673,9,,,,,,,,,,,,,,,,,,
,1174715445,"DIGESTIVE HEALTH CENTER OF THOUSAND OAKS, LLC",3510 N MOORPARK RD STE 101,THOUSAND OAKS,CA,913602601,,34.23047342,-118.8712311,8054929000,Dec-49,,,,,,,,,,,,,,,,,,,,,,,
,1518133321,GREENBRAE SURGERY CENTER LLC,575 SIR FRANCIS DRAKE BLVD,GREENBRAE,CA,949042307,,37.9481964,-122.5277396,4159258900,Dec-49,,,,05C1679,,,,,,,,,,,,,,,,,,,
,1780853044,"HACIENDA SURGERY CENTER, LLC",4626 WILLOW RD,PLEASANTON,CA,945888555,,37.69240685,-121.8988002,8056797557,Dec-49,,,,,,,,,,,,,,,,,,,,,,,
,1093771073,ARTEL LLC,521 S HAM LN,LODI,CA,952423528,,38.12800239,-121.2884204,2093330905,Dec-49,,,,ZZZ96095Z,,,,,,,,,,,,,,,,,,,
,1295918977,WEST COAST CENTER FOR SURGERIES,653 CAMINO DE LOS MARES,SAN CLEMENTE,CA,926732808,,33.4580488,-117.6492882,9494892218,Dec-49,,,,,,,,,,,,,,,,,,,,,,,
,1144497264,CALIFORNIA SKIN SURGERY CENTER INC,9269 SIERRA COLLEGE BLVD,ROSEVILLE,CA,956615919,,38.73423101,-121.2257665,9167721585,Dec-49,,,H78162,,,,,,,,,,,,,,,,,,,,
,1346425733,"NORTH BAY REGIONAL SURGERY CENTER, LLC",100 ROWLAND WAY,NOVATO,CA,949455041,,38.09709996,-122.5586902,4158921920,Dec-49,,,,,,,,,,,,,,,,,,,,,,,
,1033368378,MISSION ENDOSCOPY CENTER INC,26921 CROWN VALLEY PKWY,MISSION VIEJO,CA,926916501,,33.56330845,-117.6677059,9493482900,Dec-49,,,,,,,,,,,,,,,,,,,,,,,
,1629231782,PASADENA ADVANCED SURGERY INSTITUTE,1044 S FAIR OAKS AVE,PASADENA,CA,911052622,,34.1283437,-118.1502151,6267684422,Dec-49,,,,,,,,,,,,,,,,,,,,,,,
